res_id,name,city,locality,latitude,longitude,zipcode,cuisines,average_cost_for_two,aggregate_rating
2100707,KFC,Guwahati,Christian Basti,26.1541685785,91.7806451395,,"Burger, Fast Food",450,4.2
2100753,John's Kitchen,Guwahati,Christian Basti,26.1596809059,91.7736814544,,"Chinese, Seafood",350,4.6
2100702,Barbeque Nation,Guwahati,Ulubari,26.172261651,91.7597292736,,"North Indian, Mediterranean",1600,4.9
18657420,Piazza,Guwahati,Ulubari,26.179928655700003,91.7563205212,781007.0,"Italian, Continental, Asian, Modern Indian, Pizza",800,4.4
2100478,Terra Mayaa Restaurant and Lounge,Guwahati,"Anil Plaza, Christian Basti",26.1606508102,91.7738088593,781005.0,"Continental, Italian, Indian, Asian",1400,4.1
2100712,Mocha,Guwahati,"Anil Plaza, Christian Basti",26.1612885852,91.7740610278,781005.0,"Cafe, Italian",800,4.9
18397909,BrewBakes,Guwahati,Six Mile,26.1330681363,91.8064728007,781022.0,"Cafe, Continental, Chinese",500,4.7
18962231,Olive Garden,Guwahati,Christian Basti,26.1523109183,91.7811983859,781007.0,"Mexican, Continental, Italian",0,4.2
2100870,The Woking Mama,Guwahati,Christian Basti,26.160747409000003,91.771777086,781005.0,"Chinese, Thai, Japanese, Asian, Momos",1300,4.3
2100719,The Corner Cafe,Guwahati,Uzan Bazaar,26.1860216406,91.7567718029,,"Cafe, Continental, North Indian, Italian, Chinese, Biryani",900,4.1
2100913,Kalita Spectrum,Guwahati,Six Mile,26.1362602192,91.8024447933,781036.0,"Chinese, Biryani, Desserts",1200,4.6
2100904,Mughal Garden,Guwahati,Ulubari,26.1797556489,91.7599679902,,"Mughlai, North Indian",600,4.5
2100832,Mast Biryani,Guwahati,Zoo Tiniali,26.177648857,91.7758413032,,"North Indian, Biryani",550,4.5
2101445,The Steaming Mug,Guwahati,Uzan Bazaar,26.185663309299997,91.752842702,781001.0,Cafe,800,4.3
2100821,Raja Mircha,Guwahati,Dispur,26.138824357199997,91.7949848995,,"Assamese, Naga",400,4.8
2100644,KFC,Guwahati,Ulubari,26.172552020100003,91.7599287629,,"Burger, Fast Food",450,3.8
2100889,Street Za,Guwahati,Hatigaon,26.1371472446,91.7857336253,,"North Indian, Fast Food, Chinese",300,4.3
2101427,Rang de Basanti Urban Dhaba,Guwahati,Christian Basti,26.1554897311,91.7791645601,,North Indian,1000,4.4
2100118,The Dhaba,Guwahati,Silpukhuri,26.1847856789,91.7659674212,,"North Indian, Biryani",700,4.1
2100784,11th Avenue Cafe Bistro,Guwahati,Uzan Bazaar,26.1858534567,91.7522613332,781001.0,"Cafe, American, Italian, Continental",350,4.2
2101319,37 Street Affair,Guwahati,Khanapara,26.1336051348,91.8249924166,,"Chinese, Italian, Fast Food, Momos",400,4.2
2101020,Mising Kitchen,Guwahati,Ganeshguri,26.1513260936,91.7914581299,,North Eastern,700,4.6
2100650,KFC,Guwahati,Zoo Tiniali,26.174182586799997,91.7769091576,,"Burger, Fast Food",450,3.6
2100311,Food Exx,Guwahati,Christian Basti,26.1597940568,91.7739905789,781005.0,"North Indian, Chinese, Fast Food",600,3.9
19055804,The Table Talk Cafe,Guwahati,Uzan Bazaar,26.18592,91.75209,781001.0,Cafe,800,4.0
2100053,Khorikaa Restaurant,Guwahati,Ulubari,26.170000358600003,91.7628339306,781007.0,Assamese,500,4.2
2101537,Café Wings,Guwahati,Six Mile,26.128911,91.805764,,"Cafe, Sandwich, Fast Food, North Indian",700,3.9
2100012,Biryani Centre,Guwahati,Maligaon,26.1591807535,91.6974611208,,"Biryani, North Indian, Rolls, Momos",800,3.7
18381932,The Zouq : Resto-Cafe,Guwahati,Beltola,26.133123219699996,91.7932086065,781028.0,"Chinese, Cafe, Italian, North Indian",700,3.8
18480196,Fat Belly,Guwahati,Uzan Bazaar,26.1857204739,91.7521034181,,"Asian, Chinese, Tibetan, Momos",500,4.6
2100703,Domino's Pizza,Guwahati,Beltola,26.11736,91.80137,,"Pizza, Fast Food",400,3.9
18382720,MUGHALS – Taste Meets Tradition,Guwahati,Dispur,26.135065869699996,91.7925132438,781006.0,"Biryani, North Indian",500,3.9
18633388,Kalita Cafe,Guwahati,Six Mile,26.1362776769,91.802456528,,"Rolls, Bakery, European",1200,4.3
2100861,Underdoggs Sports Bar & Grill,Guwahati,"Central Mall, Christian Basti",26.1575198831,91.778194271,,"North Indian, Continental, Momos",1650,4.0
2100441,Momo Ghar,Guwahati,Uzan Bazaar,26.185759887399996,91.7531193048,,"Tibetan, Momos",100,4.0
2100676,Chung Fa,Guwahati,Zoo Tiniali,26.172766862600003,91.7831382528,,Chinese,800,4.2
2101413,Yanchin - Asian Restaurant,Guwahati,Khanapara,26.123156321,91.8054639548,,"Momos, Chinese",400,3.9
18674173,Recipes Train Restaurant,Guwahati,Bhangagarh,26.1616575,91.7709882813,,North Indian,700,3.9
18765148,Old Skool - Billiards and Bistro,Guwahati,Uzan Bazaar,26.1853200203,91.7548989505,,"Continental, North Indian, Chinese",800,4.1
2100552,Makhan Bhog,Guwahati,Ulubari,26.1684151709,91.7640660703,,"North Indian, Chinese, Fast Food",250,4.1
18801521,Cafe Gram,Guwahati,Zoo Tiniali,26.1801281933,91.7746446402,781003.0,"Chinese, Biryani",350,4.1
2100837,Chennai Kitchen,Guwahati,Christian Basti,26.1562441958,91.7784527689,,South Indian,200,4.3
2100074,Shanghai Salsa,Guwahati,Zoo Tiniali,26.172305582600004,91.7848572135,,"Continental, Fast Food, Chinese, Mexican",1200,4.2
18710093,Fat Belly,Guwahati,Chandmari,26.1802827923,91.7753554881,,"Chinese, Thai, Momos",500,4.4
2100875,Culina The Kitchen,Guwahati,Ulubari,26.1715984635,91.7609640956,781007.0,"Biryani, Chinese, Mongolian",1200,4.4
2101709,The Bean Journal,Guwahati,Uzan Bazaar,26.1883891265,91.7540359497,781001.0,"Cafe, Mediterranean, Chinese",600,4.2
2100565,Confucius,Guwahati,Christian Basti,26.1570838217,91.7771495506,,"Chinese, Thai",750,4.2
18654412,Domino's Pizza,Guwahati,Maligaon,26.15911399,91.68725803,,"Pizza, Fast Food",400,3.9
2100127,Pizza Hut,Guwahati,"Dona Planet Mall, Christian Basti",26.161270425300003,91.7722789943,,"Pizza, Fast Food, Italian",700,4.0
18848628,Tipsy Town,Guwahati,Zoo Tiniali,26.17186,91.77786,781024.0,"North Indian, Chinese, Italian",450,4.2
2100681,Rigbyz Cosy Kitchen,Guwahati,Bhangagarh,26.163211,91.770154,,"Momos, Chinese",400,4.3
18421803,Taii Singpho,Guwahati,Silpukhuri,26.1843888325,91.767093949,,North Eastern,500,4.4
2100416,Cafe Hendrix,Guwahati,Six Mile,26.1376733765,91.7996264622,,"Continental, Chinese, North Indian",1200,4.0
2100309,Domino's Pizza,Guwahati,Paltan Bazaar,26.17324,91.74905,,"Pizza, Fast Food",400,3.8
18702475,Nanz Cafe,Guwahati,Zoo Tiniali,26.173528738,91.7770110816,781024.0,"Cafe, Momos",800,4.4
2101943,KFC,Guwahati,Paltan Bazaar,26.1799698764,91.7513369769,,"Burger, Fast Food",450,3.9
18958779,Deja Brew,Guwahati,Zoo Tiniali,26.174935,91.776446,,"Continental, Chinese",250,4.1
2100381,Red Hot Chilli Pepper,Guwahati,Ganeshguri,26.1520203946,91.7843033373,,"Chinese, Thai",1500,4.2
2100322,4 Seasons,Guwahati,Uzan Bazaar,26.191385947399997,91.7533992603,,"Chinese, North Indian, Momos",500,4.0
2100843,JB's,Guwahati,Ganeshguri,26.1533855102,91.7814296857,,"South Indian, Fast Food, North Indian",500,4.1
2100495,Grill Republica,Guwahati,Christian Basti,26.1602725395,91.7734725773,781005.0,"Rolls, Momos, Burger",200,4.3
2100636,Domino's Pizza,Guwahati,Zoo Tiniali,26.17451387,91.77699566,,"Pizza, Fast Food",400,4.0
2100966,The Socialite,Guwahati,Christian Basti,26.1535636723,91.7805184051,781005.0,"North Indian, Continental",1200,4.1
2100108,Strawberry Fields,Guwahati,Chandmari,26.1847018466,91.7749547174,781003.0,Cafe,500,4.1
2101933,Fat Belly,Guwahati,Uzan Bazaar,26.1913594725,91.7533647269,,"Asian, Chinese, Tibetan, Momos",500,4.4
2100154,Domino's Pizza,Guwahati,"The Hub, Bhangagarh",26.16693588,91.76721096,,"Pizza, Fast Food",400,3.9
18224282,Three Guys,Guwahati,Zoo Tiniali,26.1674862553,91.7790099978,781024.0,"Continental, North Indian, Chinese, Arabian, Thai, Momos",1000,4.0
2100885,Noodle Kitchen,Guwahati,Kahilipara,26.144654634499997,91.7758875713,,"Chinese, Momos",500,4.2
18683081,Dilli 6,Guwahati,Hatigaon,26.1242550665,91.7868232727,781038.0,"North Indian, Biryani, Chinese, Mughlai",600,3.8
2101231,11th Avenue Cafe Bistro,Guwahati,Chandmari,26.1796491368,91.774129048,781003.0,"Cafe, American, Italian, Continental",350,4.3
2100700,Green Pepper's,Guwahati,Beltola,26.1303681169,91.7949268967,,"Fast Food, Chinese, Pizza",800,4.3
2100145,The Yellow Chilli,Guwahati,"The Hub, Bhangagarh",26.167021945300004,91.7669031769,781005.0,"Chinese, Continental, North Indian",1200,3.8
18643549,Oriental Bistro,Guwahati,Ulubari,26.1721283518,91.759429872,,"Thai, Japanese, Chinese, Momos",1100,4.2
18172826,Cafe Craft,Guwahati,Silpukhuri,26.1847354338,91.7672589049,,Cafe,600,4.1
2100899,Chick n Chilly,Guwahati,Hengerabari,26.1499985738,91.7889029905,,"North Indian, Chinese",500,4.0
2100714,O Maa Go,Guwahati,Ulubari,26.172437678,91.7596612126,,Bengali,800,3.6
2100464,Chick N Chilly,Guwahati,Christian Basti,26.1600787392,91.7736998946,,"Chinese, North Indian, Rolls",400,4.0
2100850,Domino's Pizza,Guwahati,Six Mile,26.13347419,91.80589378,,"Pizza, Fast Food",400,3.8
2100384,Naga Kitchen,Guwahati,Six Mile,26.1374419149,91.800172627,,"Naga, Chinese",800,3.9
2100365,JB's,Guwahati,Fancy Bazaar,26.1813274438,91.7365982383,,"South Indian, Fast Food, North Indian",500,3.9
2101350,MRB (Momo Roll Burger),Guwahati,Hatigaon,26.13072421,91.7862412333,781038.0,"Burger, Rolls, Momos",250,3.9
2100628,Pizzaz,Guwahati,Zoo Tiniali,26.1776067328,91.7757504433,,"Pizza, Cafe",600,4.1
2100868,Seven - Vivanta By Taj - Guwahati,Guwahati,"Vivanta By Taj, Khanapara",26.1252047957,91.8172301352,,Continental,2000,4.2
18692921,Chai Break,Guwahati,Ganeshguri,26.1521449892,91.7842872441,,"Cafe, Fast Food, North Indian, Italian",600,3.9
19029599,Caviar International Dine & Cafe,Guwahati,Zoo Tiniali,26.178378,91.775833,,"Continental, Italian, Chinese",700,4.0
2100860,Sura Vie,Guwahati,"The Hub, Bhangagarh",26.1669686834,91.7670067772,781005.0,"Chinese, Continental, American, Mexican, Italian, Israeli",1500,3.9
2100691,Rolls Mania,Guwahati,Zoo Tiniali,26.173015405500003,91.7771485448,,"Rolls, Fast Food",450,3.9
2100953,By The Way,Guwahati,Uzan Bazaar,26.188358739699996,91.7520839721,781001.0,"Cafe, Fast Food, Momos",500,3.7
2100574,China Town,Guwahati,Bhangagarh,26.1755472222,91.7728055555,,Chinese,600,4.1
2100849,Café Riverrun,Guwahati,Uzan Bazaar,26.1938071756,91.7536376417,781001.0,"Cafe, Juices, Continental, Desserts, Salad, Italian",500,4.0
2100303,Gam's Delicacy Restaurant,Guwahati,Ganeshguri,26.148693009,91.7867290601,781006.0,Assamese,800,4.3
18449612,Urban JuncXion,Guwahati,Chandmari,26.1803294564,91.7740122662,781003.0,"Chinese, North Indian, Momos",500,4.0
2101594,Loyans Cafe and Restaurant,Guwahati,Zoo Tiniali,26.1727451978,91.7831975967,,"Cafe, Italian",800,4.3
2101352,Bulls & Beers,Guwahati,Bhangagarh,26.1612361194,91.7724771425,781032.0,"North Indian, Finger Food",1200,4.0
2100795,XS-The Place To Be,Guwahati,"Anil Plaza, Christian Basti",26.1604982382,91.7792939767,,"Continental, Chinese, Thai, Italian, North Indian",1500,4.0
18643591,Cups & Cues Sports Cafe,Guwahati,Six Mile,26.136911,91.811354,781022.0,"Cafe, North Indian, Chinese, Continental",600,4.0
2100648,Patisserie Operaa,Guwahati,Ulubari,26.172957031,91.7602211237,,"Bakery, Fast Food",350,4.1
2100782,Café B-You - Hotel Radisson Blu,Guwahati,"Hotel Radisson Blu, Guwahati",26.1417092838,91.6736933962,781033.0,"Cafe, Chinese, Assamese, Continental, Thai, South Indian, Italian, North Indian",2000,4.0
2100855,Nehars - The Mughlai Darbar,Guwahati,Bhangagarh,26.1595412727,91.7753414065,,"Mughlai, North Indian",500,4.0
2100105,Quick Pick,Guwahati,Uzan Bazaar,26.1870442776,91.7521278933,,"Chinese, Momos",500,4.0
2100787,Test Restaurant 6,Guwahati,"Hotel Blue Moon, Uzan Bazaar",0.0,0.0,48188.0,"Assamese, Bakery, Arabian, Andhra, Bangladeshi, African",4000,3.4
2100866,Umami - Vivanta By Taj - Guwahati,Guwahati,"Vivanta By Taj, Khanapara",26.1247270723,91.8151064962,,"Chinese, Japanese",2500,4.0
18678873,The Great Kabab Factory - Hotel Radisson Blu,Guwahati,Maligaon,26.1417345661,91.6736910492,,"North Indian, Mughlai, Kebab",2500,3.9
2100507,Alfresco Grand,Guwahati,Fancy Bazaar,26.1784561341,91.7340970784,781009.0,"Chinese, North Indian",2400,3.9
2100868,Seven - Vivanta By Taj - Guwahati,Guwahati,"Vivanta By Taj, Khanapara",26.1252047957,91.8172301352,,Continental,2000,4.2
2100782,Café B-You - Hotel Radisson Blu,Guwahati,"Hotel Radisson Blu, Guwahati",26.1417092838,91.6736933962,781033.0,"Cafe, Chinese, Assamese, Continental, Thai, South Indian, Italian, North Indian",2000,4.0
2101333,Retro Town,Guwahati,Khanapara,26.1274452831,91.8121691421,,"North Indian, Chinese",2000,3.5
2100864,Octave - Vivanta By Taj - Guwahati,Guwahati,"Vivanta By Taj, Khanapara",26.1251840251,91.8172049895,,"Finger Food, Continental",2000,3.8
2100802,NestAsia - Hotel Radisson Blu,Guwahati,"Hotel Radisson Blu, Guwahati",26.141702662199997,91.67371016,781033.0,Asian,2000,3.9
2100809,Reign - Bar & Lounge - Hotel Radisson Blu,Guwahati,"Hotel Radisson Blu, Guwahati",26.1417035652,91.6736997664,,"Continental, Chinese, North Indian",2000,3.9
2100503,Tandoor - Dynasty,Guwahati,"Dynasty, Fancy Bazaar",26.1821184481,91.741624698,,"North Indian, Assamese",2000,3.7
18708315,Aurora - Mayflower,Guwahati,Pan Bazaar,26.1850053128,91.7443756387,,"South Indian, North Indian, Continental, Chinese",2000,3.0
2100520,The Lounge - Dynasty,Guwahati,"Dynasty, Fancy Bazaar",26.1821241648,91.7416357622,,Finger Food,2000,3.5
2100487,The Palms - Dynasty,Guwahati,"Dynasty, Fancy Bazaar",26.1821340937,91.7416424677,,North Indian,1800,3.7
19067476,Heartland Persia,Guwahati,Zoo Tiniali,26.1566089205,91.7831793267,781005.0,"Mediterranean, Middle Eastern, Lebanese, Beverages, Healthy Food, BBQ",1700,3.8
2100861,Underdoggs Sports Bar & Grill,Guwahati,"Central Mall, Christian Basti",26.1575198831,91.778194271,,"North Indian, Continental, Momos",1650,4.0
2100702,Barbeque Nation,Guwahati,Ulubari,26.172261651,91.7597292736,,"North Indian, Mediterranean",1600,4.9
2100381,Red Hot Chilli Pepper,Guwahati,Ganeshguri,26.1520203946,91.7843033373,,"Chinese, Thai",1500,4.2
2100860,Sura Vie,Guwahati,"The Hub, Bhangagarh",26.1669686834,91.7670067772,781005.0,"Chinese, Continental, American, Mexican, Italian, Israeli",1500,3.9
2100795,XS-The Place To Be,Guwahati,"Anil Plaza, Christian Basti",26.1604982382,91.7792939767,,"Continental, Chinese, Thai, Italian, North Indian",1500,4.0
2101959,The Square - Novotel Guwahati GS Road,Guwahati,Six Mile,26.1387063702,91.7988264933,781006.0,"Cafe, Continental, French, Indian, Asian",1500,3.8
2101318,Nyx Lounge & Deck,Guwahati,Khanapara,0.0,0.0,,"Chinese, North Indian, South Indian, Continental",1500,4.1
2100911,Spectrum Bar,Guwahati,Six Mile,26.1362602192,91.8024447933,781036.0,"Seafood, Thai, European",1500,4.2
18709769,De'licious - Hotel Royale De Casa,Guwahati,"Hotel Royal De Casa, Beltola",26.1329326853,91.7932957783,,"North Indian, Continental, Chinese",1500,3.5
2100570,Atmosphere - Kiranshree Portico,Guwahati,"Kiranshree Portico, Paltan Bazaar",26.1792706268,91.7517369613,,Finger Food,1500,3.5
18708167,Kaamakaazi,Guwahati,Fancy Bazaar,26.1801744754,91.735685952,,Finger Food,1500,2.7
18708316,The Zone - Mayflower,Guwahati,Pan Bazaar,26.185066388899997,91.7444943264,,Finger Food,1500,0.0
19074795,AB's - Absolute Barbecues,Guwahati,Christian Basti,0.0,0.0,,"European, Mediterranean, North Indian, BBQ",1400,4.2
2100478,Terra Mayaa Restaurant and Lounge,Guwahati,"Anil Plaza, Christian Basti",26.1606508102,91.7738088593,781005.0,"Continental, Italian, Indian, Asian",1400,4.1
18667218,Malt,Guwahati,Six Mile,26.1389182652,91.7984134331,781006.0,"French, Indian, Mediterranean",1400,3.5
2100172,Jharnaa Restaurant,Guwahati,"Vishwaratna Hotel, Paltan Bazar",26.178541,91.743216,,"North Indian, Chinese, Continental",1400,2.9
2100870,The Woking Mama,Guwahati,Christian Basti,26.160747409000003,91.771777086,781005.0,"Chinese, Thai, Japanese, Asian, Momos",1300,4.3
2100913,Kalita Spectrum,Guwahati,Six Mile,26.1362602192,91.8024447933,781036.0,"Chinese, Biryani, Desserts",1200,4.6
18633388,Kalita Cafe,Guwahati,Six Mile,26.1362776769,91.802456528,,"Rolls, Bakery, European",1200,4.3
2100074,Shanghai Salsa,Guwahati,Zoo Tiniali,26.172305582600004,91.7848572135,,"Continental, Fast Food, Chinese, Mexican",1200,4.2
2100875,Culina The Kitchen,Guwahati,Ulubari,26.1715984635,91.7609640956,781007.0,"Biryani, Chinese, Mongolian",1200,4.4
2100416,Cafe Hendrix,Guwahati,Six Mile,26.1376733765,91.7996264622,,"Continental, Chinese, North Indian",1200,4.0
2100966,The Socialite,Guwahati,Christian Basti,26.1535636723,91.7805184051,781005.0,"North Indian, Continental",1200,4.1
2100145,The Yellow Chilli,Guwahati,"The Hub, Bhangagarh",26.167021945300004,91.7669031769,781005.0,"Chinese, Continental, North Indian",1200,3.8
2101352,Bulls & Beers,Guwahati,Bhangagarh,26.1612361194,91.7724771425,781032.0,"North Indian, Finger Food",1200,4.0
2101411,Roots,Guwahati,Khanapara,26.1363,91.802423,,"Continental, North Indian, Asian, Mughlai",1200,3.8
2100800,Dine Way Platz,Guwahati,Khanapara,26.1242743321,91.8167607486,,"Continental, Chinese, Mongolian, North Indian",1200,3.8
2101830,Dunkin Oza,Guwahati,Six Mile,26.137166206999996,91.8005461246,781022.0,"Finger Food, North Indian",1200,3.8
2100908,Moti Mahal Delux,Guwahati,Zoo Tiniali,26.1629884181,91.7805579677,,"North Indian, Mughlai",1200,3.8
18732028,Xtreme Sports Bar and Grill,Guwahati,Christian Basti,26.161819,91.77102,,"North Indian, Continental, Chinese, Japanese",1200,4.3
18291080,Leaves & Weaves,Guwahati,Zoo Tiniali,26.1729028692,91.7775025964,781024.0,"North Indian, North Eastern, Chinese, Bengali",1200,3.8
2100553,Kitchen Bar & Restaurant,Guwahati,Ganeshguri,26.1230747425,91.7990554869,,"North Indian, Chinese",1200,3.6
2100572,White Pearl - Kiranshree Portico,Guwahati,"Kiranshree Portico, Paltan Bazaar",26.1792673171,91.7518368736,,"Continental, Chinese, North Indian",1200,3.6
2100845,Cygnett Pavilion,Guwahati,"Cygnett Inn Repose, Bhangagarh",26.16222,91.77299,,"North Indian, Continental, Chinese",1200,3.6
2100909,Zero Degree Lounge And Restaurant,Guwahati,Dispur,26.1419491644,91.7951703072,781006.0,"Asian, North Indian",1200,3.6
2100791,Cilantro,Guwahati,Khanapara,26.1257376039,91.8148764968,,"North Indian, Chinese, Italian",1200,2.9
2100869,Kitchen Bar & Restaurant,Guwahati,Zoo Tiniali,26.1752122483,91.7765862867,,"North Indian, Chinese",1200,2.9
2100873,Metro Pub,Guwahati,"Cygnett Inn Repose, Bhangagarh",26.16222,91.77299,,Finger Food,1200,3.4
2100741,Twist,Guwahati,"Hotel Rajdhani Regency, Dispur",26.1374458,91.7892775,,Finger Food,1200,3.3
18709821,Classic Court-D Courtyard,Guwahati,Ganeshguri,26.154134872399997,91.7835516483,,Continental,1200,3.3
18785657,Club V,Guwahati,Dispur,0.0,0.0,,"Asian, North Indian",1200,3.4
18984891,Paankhuri Bar & Restaurant,Guwahati,Fancy Bazaar,26.1801886167,91.74190633,,"North Indian, Chinese",1200,0.0
18643549,Oriental Bistro,Guwahati,Ulubari,26.1721283518,91.759429872,,"Thai, Japanese, Chinese, Momos",1100,4.2
2100635,Recipes,Guwahati,Dispur,26.1395825415,91.7981676757,,"Chinese, North Indian, Mughlai",1100,3.9
18823740,Food Mafia,Guwahati,Beltola,26.120189,91.79813,,"North Indian, Italian, Chinese",1100,3.7
18672565,O'Guwahati,Guwahati,Ganeshguri,26.150874058400003,91.7838289216,,"Mughlai, Chinese, Indian, Afghan",1100,3.3
2101427,Rang de Basanti Urban Dhaba,Guwahati,Christian Basti,26.1554897311,91.7791645601,,North Indian,1000,4.4
18224282,Three Guys,Guwahati,Zoo Tiniali,26.1674862553,91.7790099978,781024.0,"Continental, North Indian, Chinese, Arabian, Thai, Momos",1000,4.0
2101035,Café Shillong - TGA,Guwahati,Zoo Tiniali,26.172943189699996,91.7774590105,781024.0,"Cafe, North Eastern, Asian, Continental",1000,4.1
2100859,Ballygunge Cuisine,Guwahati,Ulubari,26.1726377766,91.7598660663,781007.0,Bengali,1000,4.2
2101295,Ichchapuron,Guwahati,Ganeshguri,26.1483896392,91.7860789597,781006.0,Bengali,1000,3.7
2100525,Florentine - Hotel Gateway Grandeur,Guwahati,"Hotel Gateway Grandeur, Christian Basti",26.1583838757,91.7754708231,781005.0,"North Indian, Chinese, Continental",1000,4.0
18708335,Chang Mai,Guwahati,Uzan Bazaar,26.1914193419,91.7542421445,,Asian,1000,4.0
2100336,Red,Guwahati,Zoo Tiniali,26.156970668200003,91.7827801779,,"North Indian, Continental, Chinese",1000,3.9
2100701,Urban Mantra Restro Lounge,Guwahati,Khanapara,26.1273724371,91.8128249422,,"Chinese, North Indian",1000,3.9
2101423,Uruka,Guwahati,Silpukhuri,26.1850519473,91.7614140362,781003.0,"Assamese, Healthy Food",1000,3.9
18870978,Santa Fantasea,Guwahati,Zoo Tiniali,26.1711970151,91.7776994212,,Seafood,1000,4.0
2101031,Legacy,Guwahati,Khanapara,26.125454,91.821322,,"Thai, Chinese, North Indian, South Indian, Continental",1000,3.8
2100385,Saatvik,Guwahati,Fancy Bazaar,26.1805027103,91.7360942777,781001.0,"North Indian, South Indian, Chinese",1000,3.7
2100102,Bhut Jolokia,Guwahati,Zoo Tiniali,26.1720236382,91.7777369544,,Assamese,1000,3.7
2100546,Greenwood Resort - City Point,Guwahati,Christian Basti,26.1619414957,91.7716349289,,"North Indian, Chinese",1000,3.9
2100581,Emperor China,Guwahati,Zoo Tiniali,26.1632147133,91.780455038,,Chinese,1000,3.6
2100622,The Yellow Table - Landmark Hotel,Guwahati,"Landmark Hotel, Ulubari",26.1804588071,91.7565753311,,"North Indian, European, Continental",1000,3.5
2100545,King Chilly - Hotel Gateway Grandeur,Guwahati,"Hotel Gateway Grandeur, Christian Basti",26.158392001,91.7754520476,781005.0,Assamese,1000,3.7
2100744,Secretrait,Guwahati,"Hotel Rajdhani Regency, Dispur",26.1374458,91.7892775,,"North Indian, Chinese, Continental",1000,3.5
18209506,Paghan- Hotel Bhargav Grand,Guwahati,Kala Pahar,26.1134893238,91.7293442041,,"Chinese, North Indian, Biryani",1000,3.7
18627815,Box Office Feast,Guwahati,Chandmari,26.183669451,91.7826829478,,"South Indian, North Indian, Chinese, Momos",1000,3.7
2100659,Hotel Nandan Le Mexitthachi,Guwahati,"Hotel Nandan, Paltan Bazaar",26.1781528417,91.7521815374,,"Thai, Mexican, Italian, Chinese",1000,3.4
2101929,Hemlata Dhaba,Guwahati,Maligaon,26.1404406472,91.6757104173,,"Chinese, Indian, Mughlai",1000,2.8
18674091,Regal Multi Cuisine Restaurant,Guwahati,Maligaon,26.1156005858,91.7119406909,,"Chinese, North Indian, South Indian",1000,3.3
2100579,Moksha,Guwahati,"Pragati Manor, Christian Basti,",26.1545420539,91.7797918618,,Finger Food,1000,3.1
2100745,Fareast,Guwahati,Hatigaon,26.1361160431,91.7860585079,,"Continental, Chinese, North Indian",1000,3.4
2100613,Piano Bar - The Landmark Hotel,Guwahati,"Landmark Hotel, Ulubari",26.1804034452,91.7566470802,,Finger Food,1000,3.3
2100531,Rainforest Bar - Hotel Gateway Grandeur,Guwahati,"Hotel Gateway Grandeur, Christian Basti",26.1584627211,91.775412485,781005.0,North Indian,1000,3.4
18224274,Apotheca - Hotel Royal De Casa,Guwahati,"Hotel Royal De Casa, Beltola",26.1329332873,91.793291755,,"North Indian, Continental, Chinese",1000,3.2
2100340,Jacana - Hotel Lilawati Grand,Guwahati,"Hotel Lilawati Grand, Pan Bazaar",26.1848584891,91.7447491363,,North Indian,1000,0.0
18709103,Chang-Ghar,Guwahati,Khanapara,26.1272080818,91.8126546219,,Assamese,1000,3.3
18766464,Martini,Guwahati,Six Mile,26.132941,91.808487,,"North Indian, Chinese, Finger Food",1000,0.0
2100660,GS Bar & Family Restaurant,Guwahati,"Hotel Geetanjali, Paltan Bazaar",26.179430997199997,91.7513762042,,"Finger Food, North Indian, Chinese",1000,2.9
2100294,Atrium Restaurant,Guwahati,Christian Basti,26.1591961012,91.7741676047,,"North Indian, Chinese, Continental",1000,3.1
18780676,Dancing Karma,Guwahati,Ulubari,26.1762931715,91.75596458,,"Chinese, Indian",1000,0.0
18708318,Saque - Hotel Rialto,Guwahati,Pan Bazaar,26.1835096881,91.7455397174,,Finger Food,1000,0.0
2100892,Vibrant,Guwahati,Ganeshguri,26.1501641008,91.7845249549,,Finger Food,1000,0.0
18709029,Cilantro,Guwahati,Khanapara,26.127925704499997,91.8116960675,,"South Indian, North Indian, Continental, Chinese",1000,0.0
2100530,Mosaic Bar and Restaurant,Guwahati,Dispur,26.1450299462,91.7912267894,,"North Indian, Continental, Assamese",950,3.8
2100674,Gunjan Sweets,Guwahati,Bhangagarh,26.1643302343,91.7690995708,,Mithai,80,3.6
2100120,Friends Sweets & Bakers,Guwahati,Kahilipara,26.1441745829,91.7649307474,,"Mithai, Bakery",80,3.1
2100441,Momo Ghar,Guwahati,Uzan Bazaar,26.185759887399996,91.7531193048,,"Tibetan, Momos",100,4.0
2100295,Eggsotic Pastry Shop,Guwahati,Uzan Bazaar,26.1895,91.7573333334,,Bakery,100,4.2
18652596,Kesaria Chaiwala,Guwahati,Chandmari,26.1889622,91.7729013,,"Tea, Fast Food",100,3.8
2101712,Suchitra Bakery,Guwahati,Kala Pahar,26.1523463265,91.7403925583,,Bakery,100,3.8
2100367,Mishti Mukh,Guwahati,Ulubari,26.1745728482,91.7578922957,,Mithai,100,3.8
18930594,Chai Biskut,Guwahati,Pan Bazaar,26.185419,91.741139,,"Fast Food, Tea",100,3.6
18709579,Repose - Baker's Special,Guwahati,Ganeshguri,26.1490391145,91.7856427655,,Bakery,100,3.2
19058721,Ambika Sharma Sweets,Guwahati,Beltola,26.123902,91.798512,,"Mithai, Fast Food",100,3.3
2100528,Lakhimi Hotel,Guwahati,Ganeshguri,26.149467983,91.7859783769,,Street Food,100,2.9
18775835,Bombay Kulfi,Guwahati,Ulubari,26.175623989,91.7568282513,,Ice Cream,100,3.5
2100734,Sharma and Sons,Guwahati,Beltola,26.1127911811,91.798212938,,"Bakery, Fast Food",100,3.5
2100730,S@rma's Mithai,Guwahati,Beltola,26.1128866152,91.7980241776,,Desserts,100,3.4
2100051,New Padma Bakery,Guwahati,Maligaon,26.1583333333,91.6853333333,,"Desserts, Bakery, Mithai",100,2.9
18993645,Shree Krishna Sweets,Guwahati,Paltan Bazaar,26.1784507182,91.7504910752,,"Mithai, Fast Food",100,3.2
2100226,Bharatiya Mistan Bhandar,Guwahati,Chandmari,26.1836381604,91.7739003897,,Mishti,100,2.7
2100454,Hotel Pinky,Guwahati,Paltan Bazaar,26.1775303074,91.7537134141,,North Indian,100,3.0
2100260,New Salltee Sweets,Guwahati,Paltan Bazaar,26.1785653553,91.7506104335,,"Mithai, Fast Food",100,2.7
18709064,Special Chicken Dum Biryani,Guwahati,Pan Bazaar,26.1880166621,91.7481404543,,Biryani,100,3.0
2100267,Krishna Sweets & Bakery,Guwahati,Hatigaon,26.1203594404,91.787439175,,"Bakery, Desserts",100,3.3
2100347,Shubham Sweets,Guwahati,Beltola,26.1262634863,91.7971343547,,Desserts,100,3.4
18709358,Madhuban Sweets & Bakers,Guwahati,Chandmari,26.1835199178,91.7739925906,,"Bakery, Mishti",100,3.4
2100334,Kapish,Guwahati,Beltola,26.1167036169,91.798347719,,"Mithai, Fast Food",100,2.9
2100168,Sweet Point,Guwahati,Dispur,26.1424367496,91.7866465822,,"Street Food, Mishti",100,3.1
2100184,Sai Sweets,Guwahati,Chandmari,26.1833881358,91.7820650339,,Desserts,100,3.2
2101410,Mandakini Sweets,Guwahati,Beltola,26.134801,91.792688,,Mithai,100,3.3
2100638,Lala Hotel,Guwahati,Fancy Bazaar,26.180027344699997,91.7410926148,,Indian,100,3.0
2100228,Maruti Nandan Sweets and Bakers,Guwahati,Khanapara,26.1312458558,91.8084727228,,"Mithai, Bakery",100,3.0
19072330,Juicy Hut,Guwahati,Borjhar,26.1270335,91.6105505,,"Juices, Beverages",100,0.0
2100230,Indian Sweets,Guwahati,Hatigaon,26.1288690826,91.7864105478,,Desserts,100,3.0
18711242,Rajasthani Kachori House,Guwahati,Bharalumukh,26.1710625546,91.7340327054,,Street Food,100,0.0
18708933,Baruah Sweets & Restaurant,Guwahati,Six Mile,26.130795849899997,91.808055304,,"North Indian, Mithai",100,3.0
2100238,Yadav Mistanna Bhandar,Guwahati,Chandmari,26.183618302800003,91.7732885107,,Mishti,100,3.1
2100106,Himalaya Sweets,Guwahati,Kahilipara,26.1416653407,91.757318303,,"Mithai, Street Food",100,3.1
18711373,Shree Shyam Sweets,Guwahati,Kala Pahar,26.1498802971,91.7411315069,,Mithai,100,0.0
2100244,Baruah Sweets and Snacks,Guwahati,Khanapara,26.1309406346,91.8085806817,,Desserts,100,3.1
18936754,Bombay Kulfi,Guwahati,Chandmari,0.0,0.0,,Ice Cream,100,3.2
2100663,Cakes and Bakes,Guwahati,Uzan Bazaar,0.0,0.0,,"Bakery, Desserts",100,2.9
2100240,Agarwal Sweets & Snacks,Guwahati,Hatigaon,26.1204789511,91.7872380093,,"Desserts, Street Food",100,3.2
2100686,Kings Fast,Guwahati,Narengi Tinali,26.1784937447,91.8277329952,,Fast Food,100,2.9
2100271,Sarma Sweets and Fast Food,Guwahati,Khanapara,26.1327153614,91.8067896366,,"Mithai, Fast Food, Street Food",100,3.2
2100261,Rupam Jalpan,Guwahati,Hatigaon,26.1201953763,91.7871602252,,Desserts,100,3.2
18942255,DION'S,Guwahati,Zoo Tiniali,26.1728141574,91.8007371695,,"Fast Food, North Indian, Chinese",100,0.0
18937898,Amrit Sweets,Guwahati,Kahilipara,26.139413,91.74664,,Mithai,100,0.0
2100390,Sahujee Sweets,Guwahati,Six Mile,26.137567126999997,91.8001746386,,Mithai,100,3.0
2100519,Pooja Restaurant,Guwahati,Ganeshguri,26.1490959961,91.7874834314,,Mithai,100,3.2
18711282,Cheesers,Guwahati,Bharalumukh,26.1736123875,91.7320770398,,"Fast Food, Bakery",100,0.0
2100041,Ananda Mistan Bhandar,Guwahati,Maligaon,26.1583333333,91.6821666667,,"Desserts, Mithai",100,3.1
18709361,Gopal Govinda Jalpan,Guwahati,Six Mile,26.135299141999997,91.8035106361,,Mithai,100,0.0
2100484,Panchajan Hotel,Guwahati,Ganeshguri,26.14542181,91.7864755914,,"Mithai, Street Food",100,3.1
2100122,Bhaskarjyoti Restaurant,Guwahati,Kahilipara,26.1450043636,91.7862040177,,"Mithai, North Indian",100,3.1
18710135,Laxmi Sweets,Guwahati,Hatigaon,26.1376038478,91.7859203741,,Mithai,100,0.0
2100223,Kiran Mistanna Bhandar,Guwahati,Chandmari,26.1836074715,91.7738521099,,Mishti,100,3.1
18710034,Priya Sweets,Guwahati,Ganeshguri,26.1483803094,91.7860182747,,Mithai,100,0.0
18708338,Chickin Hut,Guwahati,Uzan Bazaar,26.1871694365,91.7521694675,,"Rolls, Chinese",100,0.0
18805681,Sushil Bora - Core 3,Guwahati,Amingaon,0.0,0.0,,"Fast Food, North Indian",100,0.0
18710053,Ten 11,Guwahati,Zoo Tiniali,26.1724229338,91.7811671644,,North Indian,100,0.0
19075979,Mirchi And Mind,Guwahati,Bhangagarh,26.15977,91.764922,,"North Indian, Chinese",100,0.0
18709086,Shillong Momo,Guwahati,Pan Bazaar,26.1879044411,91.7476596683,,Street Food,100,0.0
18711377,Milton Bakery,Guwahati,Kala Pahar,26.1523532484,91.7403778061,,"Fast Food, Bakery",100,0.0
2100147,Sabitri Mistan Bhandar,Guwahati,Chandmari,26.1837194444,91.7855694445,,Mithai,100,0.0
18709071,Tiffin Delicious Food Corner kio,Guwahati,Pan Bazaar,26.1879898855,91.7479718104,,Fast Food,100,0.0
18709070,New Food Palace,Guwahati,Pan Bazaar,26.1879820631,91.7480824515,,Fast Food,100,0.0
18709072,New Food Palace,Guwahati,Pan Bazaar,26.1879820631,91.7480824515,,Fast Food,100,0.0
18708497,Relish Fast Food,Guwahati,Pan Bazaar,26.183858699,91.7428883538,,Fast Food,100,0.0
2100395,Govindam Sweets,Guwahati,Six Mile,26.1375884973,91.800082773,,"Street Food, Mishti",150,4.2
2100429,Momo Hut,Guwahati,Beltola,26.135117641100003,91.7922671512,,"Fast Food, Tibetan, Momos",150,3.9
2100188,Juicy Hut,Guwahati,Zoo Tiniali,26.1755468412,91.7766476423,,Juices,150,4.4
2100400,Y Not Juice,Guwahati,Six Mile,26.1376502003,91.79992787540002,,Juices,150,4.3
2100729,Kanha G Sweets,Guwahati,Beltola,26.1339425439,91.7930047587,,"Mithai, Street Food",150,3.7
2100387,Shaikh Brothers,Guwahati,Pan Bazaar,26.1865950886,91.7435146496,,Bakery,150,3.8
2100578,Talukdar Chat House,Guwahati,Ulubari,26.1770753649,91.750373058,,Street Food,150,3.9
2100364,Thanco's Natural Icecream,Guwahati,Fancy Bazaar,26.1797270652,91.7354190722,,Ice Cream,150,3.8
2100214,Silentro,Guwahati,Hatigaon,26.13068839,91.7862482741,,"North Indian, Fast Food",150,3.6
2100425,Priyanka,Guwahati,Beltola,26.1345460469,91.7926245555,,"Fast Food, Bakery, Desserts, Momos",150,3.9
2100458,Lakhimi Cabin,Guwahati,Fancy Bazaar,26.183030398200003,91.7406165227,,"Bakery, Desserts",150,3.7
2100034,Sneha Fast Food,Guwahati,Maligaon,26.1589576115,91.6972884868,,"Chinese, Fast Food, Rolls",150,2.7
2100171,New Y Not Juice,Guwahati,Dispur,26.142943595300004,91.7865423113,,Juices,150,3.9
2100297,Madhuram Sweets & Snacks,Guwahati,Beltola,26.1150370244,91.797898449,,"South Indian, Mithai",150,3.6
2100643,Prem Cold Centre,Guwahati,Fancy Bazaar,26.1807819515,91.7399456352,,"Fast Food, Street Food",150,3.8
2102000,Gokul Sweets,Guwahati,Beltola,26.127193030999997,91.7968349531,,"Mithai, Desserts, Street Food",150,3.5
18994999,Biryani Zone,Guwahati,Zoo Tiniali,26.174436,91.7747403,,"Fast Food, North Indian",150,3.4
2100467,Mangaram,Guwahati,Fancy Bazaar,26.182580291100003,91.7406534031,,"Bakery, Fast Food",150,3.7
19060489,Maa Food Restaurant,Guwahati,Hatigaon,26.1269799107,91.7795853317,,Fast Food,150,3.0
18709065,Aroo-de Waffles,Guwahati,Pan Bazaar,26.188007034499996,91.748126708,,Desserts,150,3.9
2100902,Fancy Feeds,Guwahati,Fancy Bazaar,26.1816156841,91.7404780537,,Fast Food,150,3.8
18766572,16 Hillside Takeaway,Guwahati,Chandmari,26.1770988342,91.7709191144,781003.0,North Indian,150,3.4
2100399,Prime Bakes,Guwahati,Ganeshguri,26.1517954,91.7126896,,Bakery,150,3.4
18785705,Y Not Juices,Guwahati,Christian Basti,26.1546278711,91.7801620081,,Juices,150,3.7
2100523,Prarthana Sweets,Guwahati,Ganeshguri,26.1487568129,91.7866620049,,"Mithai, Fast Food",150,3.6
2100576,Food Buzz,Guwahati,Ulubari,26.1771352417,91.7503381893,,North Indian,150,3.4
2101657,Farzipaan,Guwahati,Christian Basti,26.1574753441,91.7781027406,,"Beverages, Desserts",150,3.5
2100511,Rookman Sweet House,Guwahati,Ganeshguri,26.14824608,91.7859673128,,"Mithai, Street Food",150,3.2
18993385,Ahaar Restaurant,Guwahati,Maligaon,26.1295585517,91.6212371324,,"North Indian, Chinese",150,3.7
2100761,High Street @ 50,Guwahati,Pan Bazaar,26.188580172,91.7482477427,,Street Food,150,3.4
18709726,Shillong Momo,Guwahati,Beltola,26.1344232396,91.7925796285,,"Fast Food, Momos",150,3.4
2100542,Roll Corner,Guwahati,Chandmari,26.1805072487,91.7753075436,,"Rolls, Momos",150,3.4
2100162,Mohan Sweets & Snacks,Guwahati,Zoo Tiniali,26.1746285138,91.7769524083,,"Mithai, Fast Food",150,3.6
18889829,Scoops N Smile,Guwahati,Ganeshguri,26.151036,91.7849,,"Ice Cream, Beverages",150,3.1
2100702,Barbeque Nation,Guwahati,Ulubari,26.172261651,91.7597292736,,"North Indian, Mediterranean",1600,4.9
2100712,Mocha,Guwahati,"Anil Plaza, Christian Basti",26.1612885852,91.7740610278,781005.0,"Cafe, Italian",800,4.9
2100821,Raja Mircha,Guwahati,Dispur,26.138824357199997,91.7949848995,,"Assamese, Naga",400,4.8
18397909,BrewBakes,Guwahati,Six Mile,26.1330681363,91.8064728007,781022.0,"Cafe, Continental, Chinese",500,4.7
2100753,John's Kitchen,Guwahati,Christian Basti,26.1596809059,91.7736814544,,"Chinese, Seafood",350,4.6
2100913,Kalita Spectrum,Guwahati,Six Mile,26.1362602192,91.8024447933,781036.0,"Chinese, Biryani, Desserts",1200,4.6
2101020,Mising Kitchen,Guwahati,Ganeshguri,26.1513260936,91.7914581299,,North Eastern,700,4.6
18480196,Fat Belly,Guwahati,Uzan Bazaar,26.1857204739,91.7521034181,,"Asian, Chinese, Tibetan, Momos",500,4.6
2100904,Mughal Garden,Guwahati,Ulubari,26.1797556489,91.7599679902,,"Mughlai, North Indian",600,4.5
2100832,Mast Biryani,Guwahati,Zoo Tiniali,26.177648857,91.7758413032,,"North Indian, Biryani",550,4.5
2100812,Maa Manasha Hotel,Guwahati,Maligaon,0.0,0.0,,Bengali,500,4.5
2100776,Ziya,Guwahati,Silpukhuri,26.1853467975,91.7572140321,781003.0,"Continental, Chinese",700,4.5
18757641,Michinga,Guwahati,Uzan Bazaar,26.1915604412,91.7536168545,,"Assamese, Chinese, Naga, Beverages",750,4.5
18657420,Piazza,Guwahati,Ulubari,26.179928655700003,91.7563205212,781007.0,"Italian, Continental, Asian, Modern Indian, Pizza",800,4.4
2101427,Rang de Basanti Urban Dhaba,Guwahati,Christian Basti,26.1554897311,91.7791645601,,North Indian,1000,4.4
18710093,Fat Belly,Guwahati,Chandmari,26.1802827923,91.7753554881,,"Chinese, Thai, Momos",500,4.4
2100875,Culina The Kitchen,Guwahati,Ulubari,26.1715984635,91.7609640956,781007.0,"Biryani, Chinese, Mongolian",1200,4.4
18421803,Taii Singpho,Guwahati,Silpukhuri,26.1843888325,91.767093949,,North Eastern,500,4.4
18702475,Nanz Cafe,Guwahati,Zoo Tiniali,26.173528738,91.7770110816,781024.0,"Cafe, Momos",800,4.4
2101933,Fat Belly,Guwahati,Uzan Bazaar,26.1913594725,91.7533647269,,"Asian, Chinese, Tibetan, Momos",500,4.4
2100371,Loyans,Guwahati,Uzan Bazaar,26.1906512656,91.7542025819,,"Bakery, Fast Food",200,4.4
18762744,The Belgian Waffle Co.,Guwahati,Zoo Tiniali,26.1754847571,91.7766261242,,"Bakery, Desserts, Beverages",300,4.4
2100188,Juicy Hut,Guwahati,Zoo Tiniali,26.1755468412,91.7766476423,,Juices,150,4.4
2100870,The Woking Mama,Guwahati,Christian Basti,26.160747409000003,91.771777086,781005.0,"Chinese, Thai, Japanese, Asian, Momos",1300,4.3
2101445,The Steaming Mug,Guwahati,Uzan Bazaar,26.185663309299997,91.752842702,781001.0,Cafe,800,4.3
2100889,Street Za,Guwahati,Hatigaon,26.1371472446,91.7857336253,,"North Indian, Fast Food, Chinese",300,4.3
18633388,Kalita Cafe,Guwahati,Six Mile,26.1362776769,91.802456528,,"Rolls, Bakery, European",1200,4.3
2100837,Chennai Kitchen,Guwahati,Christian Basti,26.1562441958,91.7784527689,,South Indian,200,4.3
2100681,Rigbyz Cosy Kitchen,Guwahati,Bhangagarh,26.163211,91.770154,,"Momos, Chinese",400,4.3
2100495,Grill Republica,Guwahati,Christian Basti,26.1602725395,91.7734725773,781005.0,"Rolls, Momos, Burger",200,4.3
2101231,11th Avenue Cafe Bistro,Guwahati,Chandmari,26.1796491368,91.774129048,781003.0,"Cafe, American, Italian, Continental",350,4.3
2100700,Green Pepper's,Guwahati,Beltola,26.1303681169,91.7949268967,,"Fast Food, Chinese, Pizza",800,4.3
2100303,Gam's Delicacy Restaurant,Guwahati,Ganeshguri,26.148693009,91.7867290601,781006.0,Assamese,800,4.3
2101594,Loyans Cafe and Restaurant,Guwahati,Zoo Tiniali,26.1727451978,91.7831975967,,"Cafe, Italian",800,4.3
2100351,Grill Republica,Guwahati,Uzan Bazaar,26.1916371582,91.7522958666,,"Rolls, Momos, Burger",300,4.3
2101262,Frozen Punch,Guwahati,Ulubari,26.1807377223,91.7563101277,,Desserts,200,4.3
18732028,Xtreme Sports Bar and Grill,Guwahati,Christian Basti,26.161819,91.77102,,"North Indian, Continental, Chinese, Japanese",1200,4.3
2100345,Baskin Robbins,Guwahati,Uzan Bazaar,26.191546602,91.7523156479,,"Ice Cream, Desserts, Beverages",300,4.3
2100400,Y Not Juice,Guwahati,Six Mile,26.1376502003,91.79992787540002,,Juices,150,4.3
19098190,Grill Republica,Guwahati,Beltola,26.136322,91.792028,,"Rolls, Momos, Burger",200,4.3
19097825,Grill Republica,Guwahati,Zoo Tiniali,26.179298,91.774054,,"Rolls, Momos, Burger",300,4.3
19074795,AB's - Absolute Barbecues,Guwahati,Christian Basti,0.0,0.0,,"European, Mediterranean, North Indian, BBQ",1400,4.2
2100707,KFC,Guwahati,Christian Basti,26.1541685785,91.7806451395,,"Burger, Fast Food",450,4.2
18962231,Olive Garden,Guwahati,Christian Basti,26.1523109183,91.7811983859,781007.0,"Mexican, Continental, Italian",0,4.2
2100784,11th Avenue Cafe Bistro,Guwahati,Uzan Bazaar,26.1858534567,91.7522613332,781001.0,"Cafe, American, Italian, Continental",350,4.2
2101319,37 Street Affair,Guwahati,Khanapara,26.1336051348,91.8249924166,,"Chinese, Italian, Fast Food, Momos",400,4.2
2100053,Khorikaa Restaurant,Guwahati,Ulubari,26.170000358600003,91.7628339306,781007.0,Assamese,500,4.2
2100676,Chung Fa,Guwahati,Zoo Tiniali,26.172766862600003,91.7831382528,,Chinese,800,4.2
2100074,Shanghai Salsa,Guwahati,Zoo Tiniali,26.172305582600004,91.7848572135,,"Continental, Fast Food, Chinese, Mexican",1200,4.2
2101709,The Bean Journal,Guwahati,Uzan Bazaar,26.1883891265,91.7540359497,781001.0,"Cafe, Mediterranean, Chinese",600,4.2
2100565,Confucius,Guwahati,Christian Basti,26.1570838217,91.7771495506,,"Chinese, Thai",750,4.2
18848628,Tipsy Town,Guwahati,Zoo Tiniali,26.17186,91.77786,781024.0,"North Indian, Chinese, Italian",450,4.2
2100381,Red Hot Chilli Pepper,Guwahati,Ganeshguri,26.1520203946,91.7843033373,,"Chinese, Thai",1500,4.2
2100885,Noodle Kitchen,Guwahati,Kahilipara,26.144654634499997,91.7758875713,,"Chinese, Momos",500,4.2
18643549,Oriental Bistro,Guwahati,Ulubari,26.1721283518,91.759429872,,"Thai, Japanese, Chinese, Momos",1100,4.2
2100868,Seven - Vivanta By Taj - Guwahati,Guwahati,"Vivanta By Taj, Khanapara",26.1252047957,91.8172301352,,Continental,2000,4.2
2100859,Ballygunge Cuisine,Guwahati,Ulubari,26.1726377766,91.7598660663,781007.0,Bengali,1000,4.2
2100759,Nagameez,Guwahati,Silpukhuri,26.1845816898,91.7665870115,,"Chinese, Naga, Biryani, Tibetan, Momos",600,4.2
2100778,Khushboo,Guwahati,Fancy Bazaar,26.1797490295,91.7387839034,,"Beverages, Chinese, South Indian, Ice Cream",450,4.2
2100395,Govindam Sweets,Guwahati,Six Mile,26.1375884973,91.800082773,,"Street Food, Mishti",150,4.2
18778228,The Stayfit Kitchen,Guwahati,Beltola,26.1277055566,91.7949329678,781006.0,"Salad, Sandwich, Healthy Food",600,4.2
18978934,Sweet Cult,Guwahati,Silpukhuri,26.1846162897,91.7675676942,781003.0,Desserts,500,4.2
2100295,Eggsotic Pastry Shop,Guwahati,Uzan Bazaar,26.1895,91.7573333334,,Bakery,100,4.2
2100911,Spectrum Bar,Guwahati,Six Mile,26.1362602192,91.8024447933,781036.0,"Seafood, Thai, European",1500,4.2
18775813,Soul Craft Cafe,Guwahati,Uzan Bazaar,26.195027,91.755367,,"Fast Food, Chinese, Continental, Burger, Sandwich, Pizza, Rolls",250,4.2
2101435,Oryza - The Ethnic Kitchen,Guwahati,Maligaon,26.102662,91.68936,,"North Eastern, Assamese",700,4.2
2100478,Terra Mayaa Restaurant and Lounge,Guwahati,"Anil Plaza, Christian Basti",26.1606508102,91.7738088593,781005.0,"Continental, Italian, Indian, Asian",1400,4.1
2100719,The Corner Cafe,Guwahati,Uzan Bazaar,26.1860216406,91.7567718029,,"Cafe, Continental, North Indian, Italian, Chinese, Biryani",900,4.1
2100118,The Dhaba,Guwahati,Silpukhuri,26.1847856789,91.7659674212,,"North Indian, Biryani",700,4.1
18765148,Old Skool - Billiards and Bistro,Guwahati,Uzan Bazaar,26.1853200203,91.7548989505,,"Continental, North Indian, Chinese",800,4.1
2100552,Makhan Bhog,Guwahati,Ulubari,26.1684151709,91.7640660703,,"North Indian, Chinese, Fast Food",250,4.1
18801521,Cafe Gram,Guwahati,Zoo Tiniali,26.1801281933,91.7746446402,781003.0,"Chinese, Biryani",350,4.1
18958779,Deja Brew,Guwahati,Zoo Tiniali,26.174935,91.776446,,"Continental, Chinese",250,4.1
2100843,JB's,Guwahati,Ganeshguri,26.1533855102,91.7814296857,,"South Indian, Fast Food, North Indian",500,4.1
2100966,The Socialite,Guwahati,Christian Basti,26.1535636723,91.7805184051,781005.0,"North Indian, Continental",1200,4.1
2100108,Strawberry Fields,Guwahati,Chandmari,26.1847018466,91.7749547174,781003.0,Cafe,500,4.1
18172826,Cafe Craft,Guwahati,Silpukhuri,26.1847354338,91.7672589049,,Cafe,600,4.1
2100628,Pizzaz,Guwahati,Zoo Tiniali,26.1776067328,91.7757504433,,"Pizza, Cafe",600,4.1
2100574,China Town,Guwahati,Bhangagarh,26.1755472222,91.7728055555,,Chinese,600,4.1
2100648,Patisserie Operaa,Guwahati,Ulubari,26.172957031,91.7602211237,,"Bakery, Fast Food",350,4.1
2101035,Café Shillong - TGA,Guwahati,Zoo Tiniali,26.172943189699996,91.7774590105,781024.0,"Cafe, North Eastern, Asian, Continental",1000,4.1
2100758,Heritage Khorikaa,Guwahati,Silpukhuri,26.1851091122,91.7662976682,,Assamese,600,4.1
2100435,Silk Route,Guwahati,Uzan Bazaar,26.1876861111,91.7551583333,781001.0,"Chinese, Thai, Momos",450,4.1
2100217,Loyans,Guwahati,Chandmari,26.1836396647,91.7740301415,,"Bakery, Fast Food",200,4.1
18206892,BY The Way,Guwahati,Zoo Tiniali,26.1728237326,91.7835154384,,"Rolls, Chinese",500,4.1
2100803,Kiranshree Sweets,Guwahati,Christian Basti,26.1547138944,91.7800322548,781005.0,"South Indian, North Indian, Chinese, Mithai",500,4.1
18628137,Keventers,Guwahati,Uzan Bazaar,26.1915679625,91.7522650212,,"Beverages, Desserts, Ice Cream",400,4.1
2100113,Sagar Ratna,Guwahati,Paltan Bazaar,26.1787368594,91.7507214099,,"South Indian, North Indian, Chinese",500,4.1
2101318,Nyx Lounge & Deck,Guwahati,Khanapara,0.0,0.0,,"Chinese, North Indian, South Indian, Continental",1500,4.1
18623241,Sugar Rush,Guwahati,Zoo Tiniali,26.172005885,91.7777238786,781024.0,"North Indian, Chinese",250,4.1
2100588,Chaska,Guwahati,"Pragati Manor, Christian Basti,",26.1546272218,91.7793801427,,"North Indian, Chinese, Continental",800,4.1
18833774,Oak Grill,Guwahati,Bhangagarh,26.1661321312,91.7679858393,,"North Indian, Salad, Continental",250,4.1
18708322,Lohon Restaurant,Guwahati,Ulubari,26.1771680385,91.7570219189,,"North Indian, Chinese",300,4.1
19055804,The Table Talk Cafe,Guwahati,Uzan Bazaar,26.18592,91.75209,781001.0,Cafe,800,4.0
2100861,Underdoggs Sports Bar & Grill,Guwahati,"Central Mall, Christian Basti",26.1575198831,91.778194271,,"North Indian, Continental, Momos",1650,4.0
2100441,Momo Ghar,Guwahati,Uzan Bazaar,26.185759887399996,91.7531193048,,"Tibetan, Momos",100,4.0
2100127,Pizza Hut,Guwahati,"Dona Planet Mall, Christian Basti",26.161270425300003,91.7722789943,,"Pizza, Fast Food, Italian",700,4.0
2100416,Cafe Hendrix,Guwahati,Six Mile,26.1376733765,91.7996264622,,"Continental, Chinese, North Indian",1200,4.0
2100322,4 Seasons,Guwahati,Uzan Bazaar,26.191385947399997,91.7533992603,,"Chinese, North Indian, Momos",500,4.0
2100636,Domino's Pizza,Guwahati,Zoo Tiniali,26.17451387,91.77699566,,"Pizza, Fast Food",400,4.0
2100857,Food.com,Guwahati,Six Mile,26.1295279978,91.8070736155,,"North Indian, South Indian, Chinese",450,2.2
18620950,The Food Factory,Guwahati,Khanapara,26.1310863222,91.8229469284,,"Chinese, North Indian",500,2.2
2100150,Barbies Food Court,Guwahati,Zoo Tiniali,26.1744765618,91.7769393325,,"North Indian, Chinese",400,2.3
2100431,Breeze Restaurant,Guwahati,Pan Bazaar,26.1868950496,91.7442753911,,"North Indian, Chinese",500,2.4
2100281,Kurry Pot,Guwahati,Silpukhuri,26.1845500985,91.7672813684,,"North Indian, South Indian, Chinese",600,2.4
2100241,M K Bar & Restaurant,Guwahati,Paltan Bazaar,26.178697,91.748743,,"North Indian, Chinese",600,2.4
2100725,N.E. Food Express,Guwahati,Beltola,26.1271944444,91.7982638888,,"North Indian, Seafood, Chinese, Assamese, South Indian",400,2.5
2100447,Momo Station,Guwahati,Chandmari,26.1798805556,91.772024,,"Chinese, North Indian, Momos",350,2.5
2100274,JG's,Guwahati,Paltan Bazaar,26.1790148761,91.7513339594,,"North Indian, Chinese",200,2.5
2100069,Sikha Restaurant,Guwahati,Maligaon,26.162103394699997,91.6945361719,,"North Indian, Chinese, South Indian",500,2.5
18951028,Utopia Sky Lounge & Restaurant,Guwahati,Beltola,0.0,0.0,,"Continental, North Indian, Chinese",600,2.6
2100407,Shillong Restaurant,Guwahati,Six Mile,26.1378798556,91.7998698726,,"Assamese, North Indian, Fast Food",400,2.6
2100598,City Dhaba,Guwahati,Ulubari,26.1720611111,91.7602,,"North Indian, Chinese",550,2.6
2100642,Prashaanti Restaurant,Guwahati,Uzan Bazaar,0.0,0.0,,"North Indian, Chinese, Fast Food",350,2.6
2100027,Nasta Ghar,Guwahati,Maligaon,26.1591533685,91.698897779,,"Street Food, North Indian, Chinese, Fast Food",200,2.6
2100829,Cheers Crossroads,Guwahati,Ganeshguri,26.146769245700003,91.7861859128,,"North Indian, Chinese",900,2.6
2100723,Hot Box,Guwahati,Silpukhuri,26.1419305556,91.7864305556,,"North Indian, Chinese, Street Food",350,2.6
2100666,Swagat Restaurant,Guwahati,Paltan Bazaar,26.178354134,91.751074791,,"North Indian, Chinese",500,2.6
2100946,Kareem's,Guwahati,Bhangagarh,26.1663181042,91.7680323869,,"North Indian, Mughlai",500,2.7
2100030,Avijit Bar & Restaurant,Guwahati,Maligaon,26.1589917664,91.6963818669,,"North Indian, Chinese",600,2.7
2101953,Cafe Heritage Kharika,Guwahati,Uzan Bazaar,26.1853889189,91.7546525225,,"Assamese, North Eastern",700,2.7
2100034,Sneha Fast Food,Guwahati,Maligaon,26.1589576115,91.6972884868,,"Chinese, Fast Food, Rolls",150,2.7
2100924,Zaika,Guwahati,Bharalumukh,0.0,0.0,,"South Indian, North Indian, Chinese",600,2.7
2100250,Club Dine Music Dance & Tulip Restaurant,Guwahati,Six Mile,26.130558655500003,91.8096384779,,"North Indian, Chinese",800,2.7
2101826,Nand Gopala,Guwahati,Paltan Bazaar,26.178818,91.750978,781008.0,"Fast Food, Biryani",500,2.7
18709353,Shree Krishnam,Guwahati,Khanapara,26.1333417468,91.8241435289,,"South Indian, North Indian, Mithai, Chinese",600,2.7
2100182,Jew,Guwahati,Zoo Tiniali,26.1753572788,91.7766634002,,"North Indian, Chinese",200,2.7
2100755,Fire Bowl,Guwahati,Christian Basti,26.1558523683,91.7782204226,,"Fast Food, Chinese, North Indian",400,2.7
2100226,Bharatiya Mistan Bhandar,Guwahati,Chandmari,26.1836381604,91.7739003897,,Mishti,100,2.7
19102153,Da Vue,Guwahati,Six Mile,0.0,0.0,,"North Indian, Chinese, Continental",700,2.7
2100434,Zen Restaurant,Guwahati,Beltola,26.1365299093,91.7915825173,,"North Indian, Chinese",400,2.7
18987887,MyMinionz,Guwahati,Six Mile,26.1388554,91.8114302,,"North Indian, Chinese",250,2.7
2100260,New Salltee Sweets,Guwahati,Paltan Bazaar,26.1785653553,91.7506104335,,"Mithai, Fast Food",100,2.7
2100010,Sankardev Food Center,Guwahati,Maligaon,26.158881925,91.6951121762,,"North Indian, Chinese",500,2.7
18621644,Kalpana Restaurant,Guwahati,Maligaon,26.1499913,91.6713105,,"Mithai, North Indian, Chinese",400,2.7
18708167,Kaamakaazi,Guwahati,Fancy Bazaar,26.1801744754,91.735685952,,Finger Food,1500,2.7
2100879,Silver Dine Multicuisine Restaurant,Guwahati,Amingaon,26.1962939364,91.6874296591,,"North Indian, Chinese, Continental",600,2.8
2100716,The Grill,Guwahati,Six Mile,26.1320826515,91.8073512241,,"Fast Food, Chinese",350,2.8
19091854,Eat Street,Guwahati,Hatigaon,26.1209306975,91.783360577,,"North Indian, Chinese",300,2.8
2100301,Lajeez,Guwahati,Narengi Tinali,26.1777677073,91.8299840391,,"North Indian, Chinese",450,2.8
2100426,Mughlai Kolkata,Guwahati,Ganeshguri,26.150786781100003,91.7849514261,,Mughlai,500,2.8
18805700,Pabular Host,Guwahati,Amingaon,26.1994308053,91.6733168214,,"Biryani, North Indian",600,2.8
2100445,Cafe Coffee Day,Guwahati,Six Mile,26.1379150714,91.7996418849,,"Beverages, Cafe, Sandwich, Fast Food",650,2.8
2101929,Hemlata Dhaba,Guwahati,Maligaon,26.1404406472,91.6757104173,,"Chinese, Indian, Mughlai",1000,2.8
18710092,On The Plate,Guwahati,Zoo Tiniali,26.1737911205,91.7768970877,,Fast Food,250,2.8
2101256,Cafe Coffee Day,Guwahati,Amingaon,26.1962575349,91.6873951256,,"Beverages, Cafe, Sandwich, Fast Food",650,2.8
2100587,Lilly's,Guwahati,Zoo Tiniali,26.1724048798,91.7812020332,,"North Indian, Chinese",400,2.8
18640557,Cityline,Guwahati,Bhangagarh,26.1668471138,91.7673856393,,Fast Food,350,2.8
18800489,Cafe Orchid,Guwahati,Christian Basti,26.161357,91.775116,,Cafe,300,2.8
2100617,New Maa Kali Hotel,Guwahati,Paltan Bazaar,26.1792844674,91.7519337684,,Bengali,250,2.8
2100413,Mandir Food Point,Guwahati,Chandmari,26.1800168139,91.7747211456,781003.0,"Fast Food, Chinese",200,2.8
18872614,Mom's Kitchen,Guwahati,Maligaon,26.1581438797,91.6852292751,781012.0,North Indian,200,2.8
2100536,Camellia - Hotel Gateway Grandeur,Guwahati,"Hotel Gateway Grandeur, Christian Basti",26.1584693417,91.77548792209998,781005.0,"Cafe, Bakery",350,2.8
2100448,Delicious,Guwahati,Dispur,26.1391295578,91.7985009402,,Assamese,150,2.8
2100439,Bijoya Restaurant,Guwahati,Six Mile,26.137917479299997,91.7996951938,,"North Indian, Fast Food",450,2.8
18800431,Express Kitchen,Guwahati,Dispur,26.150358,91.789742,,"North Indian, Chinese",250,2.8
2100246,Latasca Bar & Restaurant,Guwahati,Paltan Bazaar,26.1784805058,91.7488663271,,Finger Food,800,2.8
2100052,Khushi Sweets,Guwahati,Bharalumukh,26.1733003565,91.7315764725,,Mithai,250,2.8
2100692,The Square Meal,Guwahati,"Ginger Hotel, Hengerabari",26.1473651583,91.8146863952,,"North Indian, Chinese",650,2.8
2100405,Naasta,Guwahati,Pan Bazaar,26.1840333333,91.7463222223,,Fast Food,150,2.8
2100689,Delight Restaurant,Guwahati,Narengi Tinali,26.1784774969,91.8281333148,,"Chinese, North Indian",300,2.8
2100020,Kokhaj Fast Food,Guwahati,Maligaon,26.1591666667,91.697,,"Fast Food, Chinese",200,2.8
2100059,Rest Stop,Guwahati,Paltan Bazaar,26.1803339419,91.7475346103,,"Street Food, South Indian",150,2.8
2100808,Biryani Darbar,Guwahati,Chandmari,26.1876787955,91.7458612472,781001.0,"Biryani, Hyderabadi, Chinese",350,2.9
18929682,Kerala Cafe,Guwahati,Hatigaon,26.1329262587,91.7858728011,,"South Indian, North Indian",450,2.9
2100563,Dilkush Punjabi Dhaba,Guwahati,Paltan Bazaar,26.1806829623,91.7509514093,,"North Indian, Fast Food, Biryani",300,2.9
18795758,Domino's Pizza,Guwahati,Chandmari,26.18816844,91.79377645,,"Pizza, Fast Food",400,2.9
2101019,Brown Creams,Guwahati,Zoo Tiniali,26.176365265900003,91.7762768269,,"Pizza, Bakery, Desserts",500,2.9
18904562,Needs,Guwahati,Beltola,26.1216550869,91.8058776855,,"North Indian, Chinese",300,2.9
19108869,The Tribal Kitchen,Guwahati,Beltola,26.1229249898,91.7868375122,,Assamese,400,2.9
18801584,The Nizan Hub,Guwahati,Hatigaon,26.1368458461,91.785900629,,"Chinese, North Indian, Fast Food",500,2.9
2101349,Bawarchi Da Dhaba,Guwahati,Khanapara,26.121779,91.805955,,North Indian,500,2.9
2101257,Subway,Guwahati,Amingaon,26.1962948389,91.6874266416,,"Fast Food, Healthy Food, Sandwich, Salad",500,2.9
2100791,Cilantro,Guwahati,Khanapara,26.1257376039,91.8148764968,,"North Indian, Chinese, Italian",1200,2.9
18822015,Bento Box Cafe,Guwahati,Six Mile,26.136887,91.815392,,"North Indian, Chinese, Asian",400,2.9
2100869,Kitchen Bar & Restaurant,Guwahati,Zoo Tiniali,26.1752122483,91.7765862867,,"North Indian, Chinese",1200,2.9
18954215,Wasallam Food,Guwahati,Paltan Bazaar,26.1759288069,91.7529064802,,"Chinese, North Indian",300,2.9
19077354,Spectrum Foods,Guwahati,Bhangagarh,26.1746797,91.7713756,,"North Indian, Chinese",300,2.9
18508838,Dawat,Guwahati,Ganeshguri,0.0,0.0,,North Indian,400,2.9
18773826,Repose - Baker's Special,Guwahati,Maligaon,26.1593391968,91.6982353066,,"Fast Food, Desserts, Bakery",300,2.9
18816695,White Smoke,Guwahati,Hatigaon,26.1290035248,91.7872619629,,"Fast Food, Sandwich",250,2.9
18708425,King's & Queen's,Guwahati,Uzan Bazaar,26.184901212399996,91.7545465752,,"Biryani, Chinese",500,2.9
2100528,Lakhimi Hotel,Guwahati,Ganeshguri,26.149467983,91.7859783769,,Street Food,100,2.9
2100749,Baker's,Guwahati,Bhangagarh,26.161711,91.772653,,"Bakery, Fast Food",300,2.9
2100051,New Padma Bakery,Guwahati,Maligaon,26.1583333333,91.6853333333,,"Desserts, Bakery, Mithai",100,2.9
18709575,Yum Yum Momos,Guwahati,Bhangagarh,26.1664733769,91.7679938301,,Momos,150,2.9
2100494,Spice 6 Cheeni Kum,Guwahati,Silpukhuri,26.1850654863,91.7637780681,,"Fast Food, Chinese",300,2.9
18709567,Tadka of India,Guwahati,Bhangagarh,26.1664733769,91.7680441216,,North Indian,800,2.9
2100627,Chandni Chowk,Guwahati,Ulubari,26.1736527778,91.7487416666,,Street Food,150,2.9
2100172,Jharnaa Restaurant,Guwahati,"Vishwaratna Hotel, Paltan Bazar",26.178541,91.743216,,"North Indian, Chinese, Continental",1400,2.9
2100583,The Fluid Bar Cum Restaurant,Guwahati,Bhangagarh,26.1675472222,91.7625416667,781007.0,"North Indian, Chinese",500,2.9
2100537,Big Bite,Guwahati,Ganeshguri,26.150021446599997,91.7853440344,,"South Indian, Chinese",150,2.9
2100225,Madina Hotel,Guwahati,Hatigaon,26.128763427,91.7863981426,,"Biryani, Mughlai",150,2.9
2100334,Kapish,Guwahati,Beltola,26.1167036169,91.798347719,,"Mithai, Fast Food",100,2.9
2100131,Skylark Bar & Restaurant,Guwahati,Hatigaon,26.1362126622,91.7858684063,,"North Indian, Chinese",800,2.9
2100471,Hot & Juicy,Guwahati,Silpukhuri,26.1845828933,91.7667784542,,"Street Food, Juices",150,2.9
2100068,Nandita Fast Food,Guwahati,Paltan Bazaar,26.180317092600003,91.7465495691,,Street Food,250,2.9
2100688,MB's Hotel and Restaurant,Guwahati,Bhangagarh,26.1624333333,91.7673944445,,"North Indian, Street Food",400,2.9
2100199,6 Degrees Bar and Restaurant,Guwahati,Narengi Tinali,0.0,0.0,,Finger Food,250,2.9
2100354,Tasty Corner,Guwahati,Ganeshguri,26.1558944444,91.7829055555,,"Fast Food, Chinese",200,2.9
2100707,KFC,Guwahati,Christian Basti,26.1541685785,91.7806451395,,"Burger, Fast Food",450,4.2
2100753,John's Kitchen,Guwahati,Christian Basti,26.1596809059,91.7736814544,,"Chinese, Seafood",350,4.6
18657420,Piazza,Guwahati,Ulubari,26.179928655700003,91.7563205212,781007.0,"Italian, Continental, Asian, Modern Indian, Pizza",800,4.4
2100870,The Woking Mama,Guwahati,Christian Basti,26.160747409000003,91.771777086,781005.0,"Chinese, Thai, Japanese, Asian, Momos",1300,4.3
2100904,Mughal Garden,Guwahati,Ulubari,26.1797556489,91.7599679902,,"Mughlai, North Indian",600,4.5
2100832,Mast Biryani,Guwahati,Zoo Tiniali,26.177648857,91.7758413032,,"North Indian, Biryani",550,4.5
2100821,Raja Mircha,Guwahati,Dispur,26.138824357199997,91.7949848995,,"Assamese, Naga",400,4.8
2100644,KFC,Guwahati,Ulubari,26.172552020100003,91.7599287629,,"Burger, Fast Food",450,3.8
2101445,The Steaming Mug,Guwahati,Uzan Bazaar,26.185663309299997,91.752842702,781001.0,Cafe,800,4.3
2100118,The Dhaba,Guwahati,Silpukhuri,26.1847856789,91.7659674212,,"North Indian, Biryani",700,4.1
2101427,Rang de Basanti Urban Dhaba,Guwahati,Christian Basti,26.1554897311,91.7791645601,,North Indian,1000,4.4
2100650,KFC,Guwahati,Zoo Tiniali,26.174182586799997,91.7769091576,,"Burger, Fast Food",450,3.6
2101020,Mising Kitchen,Guwahati,Ganeshguri,26.1513260936,91.7914581299,,North Eastern,700,4.6
2101319,37 Street Affair,Guwahati,Khanapara,26.1336051348,91.8249924166,,"Chinese, Italian, Fast Food, Momos",400,4.2
2100053,Khorikaa Restaurant,Guwahati,Ulubari,26.170000358600003,91.7628339306,781007.0,Assamese,500,4.2
19055804,The Table Talk Cafe,Guwahati,Uzan Bazaar,26.18592,91.75209,781001.0,Cafe,800,4.0
2100012,Biryani Centre,Guwahati,Maligaon,26.1591807535,91.6974611208,,"Biryani, North Indian, Rolls, Momos",800,3.7
18480196,Fat Belly,Guwahati,Uzan Bazaar,26.1857204739,91.7521034181,,"Asian, Chinese, Tibetan, Momos",500,4.6
2100703,Domino's Pizza,Guwahati,Beltola,26.11736,91.80137,,"Pizza, Fast Food",400,3.9
2101537,Café Wings,Guwahati,Six Mile,26.128911,91.805764,,"Cafe, Sandwich, Fast Food, North Indian",700,3.9
18382720,MUGHALS – Taste Meets Tradition,Guwahati,Dispur,26.135065869699996,91.7925132438,781006.0,"Biryani, North Indian",500,3.9
2100441,Momo Ghar,Guwahati,Uzan Bazaar,26.185759887399996,91.7531193048,,"Tibetan, Momos",100,4.0
18633388,Kalita Cafe,Guwahati,Six Mile,26.1362776769,91.802456528,,"Rolls, Bakery, European",1200,4.3
2100676,Chung Fa,Guwahati,Zoo Tiniali,26.172766862600003,91.7831382528,,Chinese,800,4.2
2101413,Yanchin - Asian Restaurant,Guwahati,Khanapara,26.123156321,91.8054639548,,"Momos, Chinese",400,3.9
2100861,Underdoggs Sports Bar & Grill,Guwahati,"Central Mall, Christian Basti",26.1575198831,91.778194271,,"North Indian, Continental, Momos",1650,4.0
18674173,Recipes Train Restaurant,Guwahati,Bhangagarh,26.1616575,91.7709882813,,North Indian,700,3.9
18710093,Fat Belly,Guwahati,Chandmari,26.1802827923,91.7753554881,,"Chinese, Thai, Momos",500,4.4
2100837,Chennai Kitchen,Guwahati,Christian Basti,26.1562441958,91.7784527689,,South Indian,200,4.3
2100565,Confucius,Guwahati,Christian Basti,26.1570838217,91.7771495506,,"Chinese, Thai",750,4.2
18654412,Domino's Pizza,Guwahati,Maligaon,26.15911399,91.68725803,,"Pizza, Fast Food",400,3.9
2100681,Rigbyz Cosy Kitchen,Guwahati,Bhangagarh,26.163211,91.770154,,"Momos, Chinese",400,4.3
2100127,Pizza Hut,Guwahati,"Dona Planet Mall, Christian Basti",26.161270425300003,91.7722789943,,"Pizza, Fast Food, Italian",700,4.0
18421803,Taii Singpho,Guwahati,Silpukhuri,26.1843888325,91.767093949,,North Eastern,500,4.4
2100309,Domino's Pizza,Guwahati,Paltan Bazaar,26.17324,91.74905,,"Pizza, Fast Food",400,3.8
18702475,Nanz Cafe,Guwahati,Zoo Tiniali,26.173528738,91.7770110816,781024.0,"Cafe, Momos",800,4.4
2101943,KFC,Guwahati,Paltan Bazaar,26.1799698764,91.7513369769,,"Burger, Fast Food",450,3.9
2100381,Red Hot Chilli Pepper,Guwahati,Ganeshguri,26.1520203946,91.7843033373,,"Chinese, Thai",1500,4.2
2100495,Grill Republica,Guwahati,Christian Basti,26.1602725395,91.7734725773,781005.0,"Rolls, Momos, Burger",200,4.3
2100636,Domino's Pizza,Guwahati,Zoo Tiniali,26.17451387,91.77699566,,"Pizza, Fast Food",400,4.0
2101933,Fat Belly,Guwahati,Uzan Bazaar,26.1913594725,91.7533647269,,"Asian, Chinese, Tibetan, Momos",500,4.4
2100154,Domino's Pizza,Guwahati,"The Hub, Bhangagarh",26.16693588,91.76721096,,"Pizza, Fast Food",400,3.9
2100885,Noodle Kitchen,Guwahati,Kahilipara,26.144654634499997,91.7758875713,,"Chinese, Momos",500,4.2
2100322,4 Seasons,Guwahati,Uzan Bazaar,26.191385947399997,91.7533992603,,"Chinese, North Indian, Momos",500,4.0
18643549,Oriental Bistro,Guwahati,Ulubari,26.1721283518,91.759429872,,"Thai, Japanese, Chinese, Momos",1100,4.2
2100108,Strawberry Fields,Guwahati,Chandmari,26.1847018466,91.7749547174,781003.0,Cafe,500,4.1
2100850,Domino's Pizza,Guwahati,Six Mile,26.13347419,91.80589378,,"Pizza, Fast Food",400,3.8
2100384,Naga Kitchen,Guwahati,Six Mile,26.1374419149,91.800172627,,"Naga, Chinese",800,3.9
2101350,MRB (Momo Roll Burger),Guwahati,Hatigaon,26.13072421,91.7862412333,781038.0,"Burger, Rolls, Momos",250,3.9
2100714,O Maa Go,Guwahati,Ulubari,26.172437678,91.7596612126,,Bengali,800,3.6
18172826,Cafe Craft,Guwahati,Silpukhuri,26.1847354338,91.7672589049,,Cafe,600,4.1
18224282,Three Guys,Guwahati,Zoo Tiniali,26.1674862553,91.7790099978,781024.0,"Continental, North Indian, Chinese, Arabian, Thai, Momos",1000,4.0
2100464,Chick N Chilly,Guwahati,Christian Basti,26.1600787392,91.7736998946,,"Chinese, North Indian, Rolls",400,4.0
2100691,Rolls Mania,Guwahati,Zoo Tiniali,26.173015405500003,91.7771485448,,"Rolls, Fast Food",450,3.9
2100868,Seven - Vivanta By Taj - Guwahati,Guwahati,"Vivanta By Taj, Khanapara",26.1252047957,91.8172301352,,Continental,2000,4.2
2100849,Café Riverrun,Guwahati,Uzan Bazaar,26.1938071756,91.7536376417,781001.0,"Cafe, Juices, Continental, Desserts, Salad, Italian",500,4.0
2100574,China Town,Guwahati,Bhangagarh,26.1755472222,91.7728055555,,Chinese,600,4.1
2100860,Sura Vie,Guwahati,"The Hub, Bhangagarh",26.1669686834,91.7670067772,781005.0,"Chinese, Continental, American, Mexican, Italian, Israeli",1500,3.9
2101352,Bulls & Beers,Guwahati,Bhangagarh,26.1612361194,91.7724771425,781032.0,"North Indian, Finger Food",1200,4.0
2100303,Gam's Delicacy Restaurant,Guwahati,Ganeshguri,26.148693009,91.7867290601,781006.0,Assamese,800,4.3
2100855,Nehars - The Mughlai Darbar,Guwahati,Bhangagarh,26.1595412727,91.7753414065,,"Mughlai, North Indian",500,4.0
2100105,Quick Pick,Guwahati,Uzan Bazaar,26.1870442776,91.7521278933,,"Chinese, Momos",500,4.0
2100782,Café B-You - Hotel Radisson Blu,Guwahati,"Hotel Radisson Blu, Guwahati",26.1417092838,91.6736933962,781033.0,"Cafe, Chinese, Assamese, Continental, Thai, South Indian, Italian, North Indian",2000,4.0
2100491,Quick Pick,Guwahati,Silpukhuri,26.1849036193,91.7643228918,,"Chinese, Momos",500,3.9
2100953,By The Way,Guwahati,Uzan Bazaar,26.188358739699996,91.7520839721,781001.0,"Cafe, Fast Food, Momos",500,3.7
18710562,Epic Momos,Guwahati,Six Mile,26.1380490116,91.7999902368,,"Chinese, Momos",300,3.8
2100759,Nagameez,Guwahati,Silpukhuri,26.1845816898,91.7665870115,,"Chinese, Naga, Biryani, Tibetan, Momos",600,4.2
2101035,Café Shillong - TGA,Guwahati,Zoo Tiniali,26.172943189699996,91.7774590105,781024.0,"Cafe, North Eastern, Asian, Continental",1000,4.1
2100859,Ballygunge Cuisine,Guwahati,Ulubari,26.1726377766,91.7598660663,781007.0,Bengali,1000,4.2
2100778,Khushboo,Guwahati,Fancy Bazaar,26.1797490295,91.7387839034,,"Beverages, Chinese, South Indian, Ice Cream",450,4.2
18449612,Urban JuncXion,Guwahati,Chandmari,26.1803294564,91.7740122662,781003.0,"Chinese, North Indian, Momos",500,4.0
2100794,Rolls Mania,Guwahati,Paltan Bazaar,26.1746733471,91.7495834827,781008.0,"Rolls, Fast Food",450,4.0
18757641,Michinga,Guwahati,Uzan Bazaar,26.1915604412,91.7536168545,,"Assamese, Chinese, Naga, Beverages",750,4.5
2100792,Kasturi Restaurant,Guwahati,Ulubari,26.1715190252,91.7608460784,,"Bengali, Bangladeshi",500,4.0
18802742,Center Point,Guwahati,Amingaon,26.208944971100003,91.6859904472,,"Biryani, North Indian",400,4.0
2101295,Ichchapuron,Guwahati,Ganeshguri,26.1483896392,91.7860789597,781006.0,Bengali,1000,3.7
2100758,Heritage Khorikaa,Guwahati,Silpukhuri,26.1851091122,91.7662976682,,Assamese,600,4.1
2100641,Chinese Hut,Guwahati,Ulubari,26.1792913877,91.7565407977,,"Chinese, North Indian, Momos",450,3.8
2100395,Govindam Sweets,Guwahati,Six Mile,26.1375884973,91.800082773,,"Street Food, Mishti",150,4.2
2100695,16 Anna Bengali Restaurant,Guwahati,Ulubari,26.1714028766,91.7614774033,,Bengali,400,3.6
2100351,Grill Republica,Guwahati,Uzan Bazaar,26.1916371582,91.7522958666,,"Rolls, Momos, Burger",300,4.3
18778228,The Stayfit Kitchen,Guwahati,Beltola,26.1277055566,91.7949329678,781006.0,"Salad, Sandwich, Healthy Food",600,4.2
2100111,Paradise,Guwahati,"Paradise Hotel, Silpukhuri",26.1846111111,91.7671361111,,Assamese,650,3.9
2100790,Subway,Guwahati,Christian Basti,26.1543190523,91.7801361904,,"Fast Food, Healthy Food, Sandwich, Salad",500,3.8
2100763,Quick Pick,Guwahati,"Food Villa, Pan Bazaar",26.1887961884,91.7482638359,,"Chinese, Momos",400,3.8
2100435,Silk Route,Guwahati,Uzan Bazaar,26.1876861111,91.7551583333,781001.0,"Chinese, Thai, Momos",450,4.1
2100378,Gopal Maharaj,Guwahati,Fancy Bazaar,26.1807771375,91.7368667945,,North Indian,800,3.9
2100369,Taj Biryani,Guwahati,Ulubari,26.171949014499997,91.7607636005,,North Indian,300,3.6
2101830,Dunkin Oza,Guwahati,Six Mile,26.137166206999996,91.8005461246,781022.0,"Finger Food, North Indian",1200,3.8
18745140,Snap Dine,Guwahati,Zoo Tiniali,26.1791179785,91.7754119895,781003.0,"North Indian, Chinese, Momos",500,4.0
18206892,BY The Way,Guwahati,Zoo Tiniali,26.1728237326,91.7835154384,,"Rolls, Chinese",500,4.1
2100429,Momo Hut,Guwahati,Beltola,26.135117641100003,91.7922671512,,"Fast Food, Tibetan, Momos",150,3.9
2100406,Crackling Mustard,Guwahati,Beltola,26.128069288699997,91.7961875349,,"Bengali, North Indian",400,3.7
2101262,Frozen Punch,Guwahati,Ulubari,26.1807377223,91.7563101277,,Desserts,200,4.3
18708335,Chang Mai,Guwahati,Uzan Bazaar,26.1914193419,91.7542421445,,Asian,1000,4.0
2100039,Momo Ghar,Guwahati,Bharalumukh,26.1726666667,91.7296666666,,"Tibetan, Chinese, Momos",350,3.8
18287424,6 Thir(s)ty,Guwahati,Uzan Bazaar,26.185846,91.75469,781001.0,Cafe,400,4.0
18675865,One Stop Kitchen,Guwahati,Beltola,26.1236786027,91.7984932288,,"Assamese, Rolls",350,3.9
2101210,Frozen Stone,Guwahati,Paltan Bazaar,26.1746733471,91.7495828122,781008.0,"Desserts, Ice Cream, Bakery",200,4.0
2101639,Madiza Ultra Lounge,Guwahati,Bhangagarh,26.1610355554,91.7722985423,781006.0,"Finger Food, North Indian, Chinese",600,3.9
2100707,KFC,Guwahati,Christian Basti,26.1541685785,91.7806451395,,"Burger, Fast Food",450,4.2
2100753,John's Kitchen,Guwahati,Christian Basti,26.1596809059,91.7736814544,,"Chinese, Seafood",350,4.6
2100832,Mast Biryani,Guwahati,Zoo Tiniali,26.177648857,91.7758413032,,"North Indian, Biryani",550,4.5
2100821,Raja Mircha,Guwahati,Dispur,26.138824357199997,91.7949848995,,"Assamese, Naga",400,4.8
2100644,KFC,Guwahati,Ulubari,26.172552020100003,91.7599287629,,"Burger, Fast Food",450,3.8
2100118,The Dhaba,Guwahati,Silpukhuri,26.1847856789,91.7659674212,,"North Indian, Biryani",700,4.1
2100650,KFC,Guwahati,Zoo Tiniali,26.174182586799997,91.7769091576,,"Burger, Fast Food",450,3.6
2100012,Biryani Centre,Guwahati,Maligaon,26.1591807535,91.6974611208,,"Biryani, North Indian, Rolls, Momos",800,3.7
18480196,Fat Belly,Guwahati,Uzan Bazaar,26.1857204739,91.7521034181,,"Asian, Chinese, Tibetan, Momos",500,4.6
2100703,Domino's Pizza,Guwahati,Beltola,26.11736,91.80137,,"Pizza, Fast Food",400,3.9
2100441,Momo Ghar,Guwahati,Uzan Bazaar,26.185759887399996,91.7531193048,,"Tibetan, Momos",100,4.0
2101413,Yanchin - Asian Restaurant,Guwahati,Khanapara,26.123156321,91.8054639548,,"Momos, Chinese",400,3.9
2100552,Makhan Bhog,Guwahati,Ulubari,26.1684151709,91.7640660703,,"North Indian, Chinese, Fast Food",250,4.1
2100837,Chennai Kitchen,Guwahati,Christian Basti,26.1562441958,91.7784527689,,South Indian,200,4.3
18654412,Domino's Pizza,Guwahati,Maligaon,26.15911399,91.68725803,,"Pizza, Fast Food",400,3.9
18848628,Tipsy Town,Guwahati,Zoo Tiniali,26.17186,91.77786,781024.0,"North Indian, Chinese, Italian",450,4.2
2100681,Rigbyz Cosy Kitchen,Guwahati,Bhangagarh,26.163211,91.770154,,"Momos, Chinese",400,4.3
2100309,Domino's Pizza,Guwahati,Paltan Bazaar,26.17324,91.74905,,"Pizza, Fast Food",400,3.8
2101943,KFC,Guwahati,Paltan Bazaar,26.1799698764,91.7513369769,,"Burger, Fast Food",450,3.9
18958779,Deja Brew,Guwahati,Zoo Tiniali,26.174935,91.776446,,"Continental, Chinese",250,4.1
2100322,4 Seasons,Guwahati,Uzan Bazaar,26.191385947399997,91.7533992603,,"Chinese, North Indian, Momos",500,4.0
2100843,JB's,Guwahati,Ganeshguri,26.1533855102,91.7814296857,,"South Indian, Fast Food, North Indian",500,4.1
2100636,Domino's Pizza,Guwahati,Zoo Tiniali,26.17451387,91.77699566,,"Pizza, Fast Food",400,4.0
2100154,Domino's Pizza,Guwahati,"The Hub, Bhangagarh",26.16693588,91.76721096,,"Pizza, Fast Food",400,3.9
2100885,Noodle Kitchen,Guwahati,Kahilipara,26.144654634499997,91.7758875713,,"Chinese, Momos",500,4.2
2100700,Green Pepper's,Guwahati,Beltola,26.1303681169,91.7949268967,,"Fast Food, Chinese, Pizza",800,4.3
2100899,Chick n Chilly,Guwahati,Hengerabari,26.1499985738,91.7889029905,,"North Indian, Chinese",500,4.0
2100464,Chick N Chilly,Guwahati,Christian Basti,26.1600787392,91.7736998946,,"Chinese, North Indian, Rolls",400,4.0
2100850,Domino's Pizza,Guwahati,Six Mile,26.13347419,91.80589378,,"Pizza, Fast Food",400,3.8
2100384,Naga Kitchen,Guwahati,Six Mile,26.1374419149,91.800172627,,"Naga, Chinese",800,3.9
2100365,JB's,Guwahati,Fancy Bazaar,26.1813274438,91.7365982383,,"South Indian, Fast Food, North Indian",500,3.9
2101350,MRB (Momo Roll Burger),Guwahati,Hatigaon,26.13072421,91.7862412333,781038.0,"Burger, Rolls, Momos",250,3.9
2100691,Rolls Mania,Guwahati,Zoo Tiniali,26.173015405500003,91.7771485448,,"Rolls, Fast Food",450,3.9
2100105,Quick Pick,Guwahati,Uzan Bazaar,26.1870442776,91.7521278933,,"Chinese, Momos",500,4.0
2100491,Quick Pick,Guwahati,Silpukhuri,26.1849036193,91.7643228918,,"Chinese, Momos",500,3.9
18710562,Epic Momos,Guwahati,Six Mile,26.1380490116,91.7999902368,,"Chinese, Momos",300,3.8
2100794,Rolls Mania,Guwahati,Paltan Bazaar,26.1746733471,91.7495834827,781008.0,"Rolls, Fast Food",450,4.0
18757641,Michinga,Guwahati,Uzan Bazaar,26.1915604412,91.7536168545,,"Assamese, Chinese, Naga, Beverages",750,4.5
2100695,16 Anna Bengali Restaurant,Guwahati,Ulubari,26.1714028766,91.7614774033,,Bengali,400,3.6
18778228,The Stayfit Kitchen,Guwahati,Beltola,26.1277055566,91.7949329678,781006.0,"Salad, Sandwich, Healthy Food",600,4.2
2100429,Momo Hut,Guwahati,Beltola,26.135117641100003,91.7922671512,,"Fast Food, Tibetan, Momos",150,3.9
2100790,Subway,Guwahati,Christian Basti,26.1543190523,91.7801361904,,"Fast Food, Healthy Food, Sandwich, Salad",500,3.8
2100763,Quick Pick,Guwahati,"Food Villa, Pan Bazaar",26.1887961884,91.7482638359,,"Chinese, Momos",400,3.8
2100406,Crackling Mustard,Guwahati,Beltola,26.128069288699997,91.7961875349,,"Bengali, North Indian",400,3.7
2100341,JB's,Guwahati,Uzan Bazaar,26.1913444299,91.7523743212,,"Mithai, Fast Food, North Indian, South Indian, Street Food",600,3.7
2100039,Momo Ghar,Guwahati,Bharalumukh,26.1726666667,91.7296666666,,"Tibetan, Chinese, Momos",350,3.8
2100764,Domino's Pizza,Guwahati,"Food Villa, Pan Bazaar",26.188906,91.748074,,"Pizza, Fast Food",400,3.9
2101710,The Tea Story,Guwahati,Uzan Bazaar,26.194058682,91.7547598109,,"Fast Food, Beverages",200,4.0
2100721,Naga Kitchen,Guwahati,Zoo Tiniali,26.17033948,91.7777761817,,Naga,600,3.9
2100335,Reboti Chat House,Guwahati,Pan Bazaar,26.1858381125,91.7442834377,,Fast Food,200,4.0
2100908,Moti Mahal Delux,Guwahati,Zoo Tiniali,26.1629884181,91.7805579677,,"North Indian, Mughlai",1200,3.8
2101273,Foodie's World,Guwahati,Paltan Bazaar,26.1702375,91.74725390620002,,"Pizza, Italian",500,3.8
2100919,Chicago Pizza,Guwahati,Christian Basti,26.1576309296,91.7782321572,,"Pizza, Italian, Continental, Fast Food",400,3.6
2100901,Chick N Chilly,Guwahati,Ulubari,26.176713997199997,91.7549767345,,"North Indian, Rolls, Chinese",200,4.0
2100972,Mast Punjabi Dhaba,Guwahati,Ulubari,26.1724485104,91.7596387491,,"North Indian, Chinese",600,3.6
2100857,Food.com,Guwahati,Six Mile,26.1295279978,91.8070736155,,"North Indian, South Indian, Chinese",450,2.2
18775813,Soul Craft Cafe,Guwahati,Uzan Bazaar,26.195027,91.755367,,"Fast Food, Chinese, Continental, Burger, Sandwich, Pizza, Rolls",250,4.2
18919279,Chillax Cafe& Bistro,Guwahati,Uzan Bazaar,26.186109403000003,91.7521709844,,"Chinese, North Indian",400,3.8
2100752,Keri Beri,Guwahati,Christian Basti,26.1599204487,91.7740740627,,"Biryani, North Indian",300,3.8
18998966,Fat Belly,Guwahati,Beltola,26.1232132967,91.8026982008,,"Asian, Chinese, Tibetan, Momos",500,4.0
2100289,Benison Food Court,Guwahati,Silpukhuri,26.1851602597,91.7578145117,,"Fast Food, Chinese",250,3.7
2101270,Chai Time,Guwahati,Zoo Tiniali,26.1719011711,91.7778754234,,"Fast Food, Sandwich, Tea",200,3.8
2100624,J 14,Guwahati,Ulubari,26.1773888903,91.7569421232,781007.0,"Fast Food, Rolls, Momos",250,3.9
2100814,Brown Creams,Guwahati,Bharalumukh,26.1686713986,91.7363305847,,"Pizza, Bakery, Desserts",500,3.6
18782177,Matka Biryani,Guwahati,Uzan Bazaar,26.185015452,91.7564350261,,"Biryani, Chinese, North Indian",450,3.9
18402148,Bhargav' Biryani,Guwahati,Bhangagarh,26.1660560058,91.7672136426,,Biryani,300,3.9
2100621,Kolkata Roll,Guwahati,Beltola,26.1316859268,91.7941775545,781006.0,"Fast Food, Street Food",200,3.7
2101668,ME - Meat And Eat,Guwahati,Beltola,26.1228496549,91.8022985517,,Fast Food,400,3.8
18395970,Anandamoi,Guwahati,Six Mile,26.124454,91.805752,,"North Indian, Chinese, Assamese",200,3.8
18799069,Ethnik,Guwahati,Dispur,26.1354041141,91.8028548767,,"Assamese, Naga, Chinese",400,3.8
2100496,J 14,Guwahati,Chandmari,26.1802891108,91.7753269896,781021.0,"Fast Food, Rolls, Momos",250,3.7
2100729,Kanha G Sweets,Guwahati,Beltola,26.1339425439,91.7930047587,,"Mithai, Street Food",150,3.7
18780747,Brown Creams,Guwahati,Beltola,26.1227689794,91.8037134169,,"Pizza, Bakery, Desserts",500,3.3
2100756,Indus,Guwahati,"Food Villa, Pan Bazaar",26.1887802429,91.7483087629,,North Indian,400,3.8
2100725,N.E. Food Express,Guwahati,Beltola,26.1271944444,91.7982638888,,"North Indian, Seafood, Chinese, Assamese, South Indian",400,2.5
2101297,Buddy's Kitchen,Guwahati,Silpukhuri,26.1852529269,91.7606656998,,"Chinese, Momos, Rolls",200,3.7
2100393,Woodland's,Guwahati,Ulubari,26.175769200500003,91.7565689608,,South Indian,250,3.7
18964649,Domino's Pizza,Guwahati,Ganeshguri,26.150887,91.786377,,"Pizza, Fast Food",400,3.7
2100762,Breakfast and More,Guwahati,"Food Villa, Pan Bazaar",26.188766403400003,91.7482963577,,"Street Food, South Indian",300,3.8
2100922,Brown Creams,Guwahati,"The Hub, Bhangagarh",26.1669039867,91.76667016,,"Pizza, Bakery, Desserts",500,3.7
2101610,3 Way Point,Guwahati,Chandmari,26.183446204099997,91.7745769769,,"Chinese, Rolls",400,3.7
2101735,South House,Guwahati,Beltola,26.1225870666,91.8059083094,,"South Indian, Street Food, Fast Food",250,3.9
18773838,Yellow 29 Food Boutique,Guwahati,Chandmari,26.1796787177,91.7741221154,,Asian,200,3.8
18662900,Ordab-The Bodo Kitchen,Guwahati,Chandmari,26.18003938,91.7746068165,,Assamese,300,3.7
2100407,Shillong Restaurant,Guwahati,Six Mile,26.1378798556,91.7998698726,,"Assamese, North Indian, Fast Food",400,2.6
18789295,Citi Dhaba,Guwahati,Six Mile,26.1340435259,91.8091115039,,"North Indian, Chinese",500,3.7
2100927,Black Board Cafe,Guwahati,Uzan Bazaar,26.1909996534,91.7570809275,781003.0,"Chinese, North Indian",300,3.8
2100325,Food Restaurant,Guwahati,Paltan Bazaar,26.1780132306,91.7518757656,,"Assamese, Chinese, Momos",400,3.8
2101241,CMS-The Food Court,Guwahati,Christian Basti,26.1559423504,91.778303571,,"Chinese, Fast Food, North Indian",500,3.7
18833774,Oak Grill,Guwahati,Bhangagarh,26.1661321312,91.7679858393,,"North Indian, Salad, Continental",250,4.1
2100444,J 14,Guwahati,Uzan Bazaar,26.185227654,91.7550012097,781001.0,"Fast Food, Rolls, Momos",250,3.8
18824323,Edesia's Kitchen,Guwahati,Beltola,26.1230712117,91.798414713,,"North Indian, Chinese, Momos",250,3.8
2100881,Kathi Junction,Guwahati,Zoo Tiniali,26.1724187212,91.7811601236,,"Chinese, Biryani, Lebanese, North Indian",500,3.7
2101516,Punjab Cabin,Guwahati,Chandmari,26.1834359125,91.7811001424,,"North Indian, Biryani, Chinese",300,3.6
2100421,Jutire Akhaj,Guwahati,Beltola,26.1345917986,91.7927009985,,"Street Food, North Indian, Chinese, Assamese",400,3.8
18708322,Lohon Restaurant,Guwahati,Ulubari,26.1771680385,91.7570219189,,"North Indian, Chinese",300,4.1
2101456,BurgerZilla Gourmet Burger,Guwahati,Chandmari,26.1835247594,91.7862243637,781021.0,Fast Food,550,3.6
2100946,Kareem's,Guwahati,Bhangagarh,26.1663181042,91.7680323869,,"North Indian, Mughlai",500,2.7
19054848,Mast Biryani,Guwahati,Beltola,26.136693730900003,91.7915348468,,"North Indian, Biryani",550,3.6
18979730,Drunken Monkey,Guwahati,Christian Basti,26.1551121497,91.7790693825,781005.0,"Beverages, Fast Food, Sandwich",400,4.0
2100395,Govindam Sweets,Guwahati,Six Mile,26.1375884973,91.800082773,,"Street Food, Mishti",150,4.2
2100341,JB's,Guwahati,Uzan Bazaar,26.1913444299,91.7523743212,,"Mithai, Fast Food, North Indian, South Indian, Street Food",600,3.7
2100803,Kiranshree Sweets,Guwahati,Christian Basti,26.1547138944,91.7800322548,781005.0,"South Indian, North Indian, Chinese, Mithai",500,4.1
2100729,Kanha G Sweets,Guwahati,Beltola,26.1339425439,91.7930047587,,"Mithai, Street Food",150,3.7
18643280,The Sweet House,Guwahati,Hatigaon,26.1371478465,91.7857044563,,"Fast Food, Mithai",400,3.5
19030493,Vaibhavam Sweets & Restaurant,Guwahati,Zoo Tiniali,26.1652679017,91.7795974016,,"North Indian, South Indian, Chinese, Continental, Mithai",300,3.5
2100297,Madhuram Sweets & Snacks,Guwahati,Beltola,26.1150370244,91.797898449,,"South Indian, Mithai",150,3.6
2101858,Ashok Sweets,Guwahati,Ulubari,26.1726675,91.7626601563,,Mithai,500,3.7
2102000,Gokul Sweets,Guwahati,Beltola,26.127193030999997,91.7968349531,,"Mithai, Desserts, Street Food",150,3.5
2100367,Mishti Mukh,Guwahati,Ulubari,26.1745728482,91.7578922957,,Mithai,100,3.8
2100523,Prarthana Sweets,Guwahati,Ganeshguri,26.1487568129,91.7866620049,,"Mithai, Fast Food",150,3.6
18709353,Shree Krishnam,Guwahati,Khanapara,26.1333417468,91.8241435289,,"South Indian, North Indian, Mithai, Chinese",600,2.7
19058721,Ambika Sharma Sweets,Guwahati,Beltola,26.123902,91.798512,,"Mithai, Fast Food",100,3.3
2100511,Rookman Sweet House,Guwahati,Ganeshguri,26.14824608,91.7859673128,,"Mithai, Street Food",150,3.2
18668158,Amrit Bhog,Guwahati,Beltola,26.1193181565,91.7984459549,,Mithai,250,3.5
2100674,Gunjan Sweets,Guwahati,Bhangagarh,26.1643302343,91.7690995708,,Mithai,80,3.6
2100162,Mohan Sweets & Snacks,Guwahati,Zoo Tiniali,26.1746285138,91.7769524083,,"Mithai, Fast Food",150,3.6
2100730,S@rma's Mithai,Guwahati,Beltola,26.1128866152,91.7980241776,,Desserts,100,3.4
18993645,Shree Krishna Sweets,Guwahati,Paltan Bazaar,26.1784507182,91.7504910752,,"Mithai, Fast Food",100,3.2
2100226,Bharatiya Mistan Bhandar,Guwahati,Chandmari,26.1836381604,91.7739003897,,Mishti,100,2.7
2100687,Trinayan Sarma's,Guwahati,Bhangagarh,26.1654695172,91.7684286833,,"Mithai, Street Food",200,3.5
2100190,Poornima Sweets,Guwahati,Zoo Tiniali,26.175559177800004,91.7765118554,,Desserts,150,3.3
18708249,Sharma Sweets House,Guwahati,Fancy Bazaar,26.1804269138,91.7386102304,,Mithai,200,3.5
2100260,New Salltee Sweets,Guwahati,Paltan Bazaar,26.1785653553,91.7506104335,,"Mithai, Fast Food",100,2.7
2100267,Krishna Sweets & Bakery,Guwahati,Hatigaon,26.1203594404,91.787439175,,"Bakery, Desserts",100,3.3
2100347,Shubham Sweets,Guwahati,Beltola,26.1262634863,91.7971343547,,Desserts,100,3.4
2100219,Om Sweets & Snacks,Guwahati,Hatigaon,26.129998176300003,91.7862898484,,"Desserts, South Indian, Street Food",150,3.1
18709358,Madhuban Sweets & Bakers,Guwahati,Chandmari,26.1835199178,91.7739925906,,"Bakery, Mishti",100,3.4
2100052,Khushi Sweets,Guwahati,Bharalumukh,26.1733003565,91.7315764725,,Mithai,250,2.8
2100334,Kapish,Guwahati,Beltola,26.1167036169,91.798347719,,"Mithai, Fast Food",100,2.9
2100168,Sweet Point,Guwahati,Dispur,26.1424367496,91.7866465822,,"Street Food, Mishti",100,3.1
2100184,Sai Sweets,Guwahati,Chandmari,26.1833881358,91.7820650339,,Desserts,100,3.2
18621644,Kalpana Restaurant,Guwahati,Maligaon,26.1499913,91.6713105,,"Mithai, North Indian, Chinese",400,2.7
18874886,Mohan Sweets And Bakery,Guwahati,Maligaon,26.157455333,91.6945231293,,"Mithai, Desserts, Bakery",150,3.1
2101410,Mandakini Sweets,Guwahati,Beltola,26.134801,91.792688,,Mithai,100,3.3
2100228,Maruti Nandan Sweets and Bakers,Guwahati,Khanapara,26.1312458558,91.8084727228,,"Mithai, Bakery",100,3.0
18642669,Madhukunj Confectioners,Guwahati,Fancy Bazaar,26.180220510100003,91.7377418652,,Mithai,500,3.3
2100230,Indian Sweets,Guwahati,Hatigaon,26.1288690826,91.7864105478,,Desserts,100,3.0
18708933,Baruah Sweets & Restaurant,Guwahati,Six Mile,26.130795849899997,91.808055304,,"North Indian, Mithai",100,3.0
2100180,Hanuman Misthan Bhandar,Guwahati,Chandmari,26.183484114,91.7819671333,,Mithai,150,3.1
2100422,Millenium Cyber Cafe,Guwahati,Pan Bazaar,26.1866468372,91.7436410487,,Mithai,200,3.2
2100238,Yadav Mistanna Bhandar,Guwahati,Chandmari,26.183618302800003,91.7732885107,,Mishti,100,3.1
2100106,Himalaya Sweets,Guwahati,Kahilipara,26.1416653407,91.757318303,,"Mithai, Street Food",100,3.1
18711373,Shree Shyam Sweets,Guwahati,Kala Pahar,26.1498802971,91.7411315069,,Mithai,100,0.0
18709230,The Gauhati Dairy,Guwahati,Pan Bazaar,26.1859286731,91.744213365,,"Fast Food, Mithai",0,3.1
2100240,Agarwal Sweets & Snacks,Guwahati,Hatigaon,26.1204789511,91.7872380093,,"Desserts, Street Food",100,3.2
2100271,Sarma Sweets and Fast Food,Guwahati,Khanapara,26.1327153614,91.8067896366,,"Mithai, Fast Food, Street Food",100,3.2
2100261,Rupam Jalpan,Guwahati,Hatigaon,26.1201953763,91.7871602252,,Desserts,100,3.2
18937898,Amrit Sweets,Guwahati,Kahilipara,26.139413,91.74664,,Mithai,100,0.0
2100390,Sahujee Sweets,Guwahati,Six Mile,26.137567126999997,91.8001746386,,Mithai,100,3.0
2100519,Pooja Restaurant,Guwahati,Ganeshguri,26.1490959961,91.7874834314,,Mithai,100,3.2
2100120,Friends Sweets & Bakers,Guwahati,Kahilipara,26.1441745829,91.7649307474,,"Mithai, Bakery",80,3.1
18708937,Maruti Nandan Sweets,Guwahati,Six Mile,26.1313689675,91.8084452301,,"Mithai, Chinese, Bakery",250,0.0
2100041,Ananda Mistan Bhandar,Guwahati,Maligaon,26.1583333333,91.6821666667,,"Desserts, Mithai",100,3.1
18709361,Gopal Govinda Jalpan,Guwahati,Six Mile,26.135299141999997,91.8035106361,,Mithai,100,0.0
2100484,Panchajan Hotel,Guwahati,Ganeshguri,26.14542181,91.7864755914,,"Mithai, Street Food",100,3.1
2100122,Bhaskarjyoti Restaurant,Guwahati,Kahilipara,26.1450043636,91.7862040177,,"Mithai, North Indian",100,3.1
18710135,Laxmi Sweets,Guwahati,Hatigaon,26.1376038478,91.7859203741,,Mithai,100,0.0
18711380,Makhan Mishri,Guwahati,Kala Pahar,26.1540918369,91.7398621514,,Mithai,0,0.0
2100223,Kiran Mistanna Bhandar,Guwahati,Chandmari,26.1836074715,91.7738521099,,Mishti,100,3.1
18710034,Priya Sweets,Guwahati,Ganeshguri,26.1483803094,91.7860182747,,Mithai,100,0.0
2100292,Juripar Hotel,Guwahati,Khanapara,26.1331939551,91.8173203245,,Mithai,150,3.1
2100147,Sabitri Mistan Bhandar,Guwahati,Chandmari,26.1837194444,91.7855694445,,Mithai,100,0.0
19100196,Sharmas Sweets & Snacks,Guwahati,Bharalumukh,26.1715809,91.7287613,,"Mithai, Fast Food",150,0.0
2100006,Diju's Sweets & Confectionary,Guwahati,Maligaon,26.158909310100004,91.6951356456,,"Fast Food, Mithai",200,3.1
2100702,Barbeque Nation,Guwahati,Ulubari,26.172261651,91.7597292736,,"North Indian, Mediterranean",1600,4.9
18657420,Piazza,Guwahati,Ulubari,26.179928655700003,91.7563205212,781007.0,"Italian, Continental, Asian, Modern Indian, Pizza",800,4.4
18962231,Olive Garden,Guwahati,Christian Basti,26.1523109183,91.7811983859,781007.0,"Mexican, Continental, Italian",0,4.2
2100870,The Woking Mama,Guwahati,Christian Basti,26.160747409000003,91.771777086,781005.0,"Chinese, Thai, Japanese, Asian, Momos",1300,4.3
2100913,Kalita Spectrum,Guwahati,Six Mile,26.1362602192,91.8024447933,781036.0,"Chinese, Biryani, Desserts",1200,4.6
2100904,Mughal Garden,Guwahati,Ulubari,26.1797556489,91.7599679902,,"Mughlai, North Indian",600,4.5
2101427,Rang de Basanti Urban Dhaba,Guwahati,Christian Basti,26.1554897311,91.7791645601,,North Indian,1000,4.4
2101319,37 Street Affair,Guwahati,Khanapara,26.1336051348,91.8249924166,,"Chinese, Italian, Fast Food, Momos",400,4.2
2101020,Mising Kitchen,Guwahati,Ganeshguri,26.1513260936,91.7914581299,,North Eastern,700,4.6
2100311,Food Exx,Guwahati,Christian Basti,26.1597940568,91.7739905789,781005.0,"North Indian, Chinese, Fast Food",600,3.9
2100053,Khorikaa Restaurant,Guwahati,Ulubari,26.170000358600003,91.7628339306,781007.0,Assamese,500,4.2
2100012,Biryani Centre,Guwahati,Maligaon,26.1591807535,91.6974611208,,"Biryani, North Indian, Rolls, Momos",800,3.7
18381932,The Zouq : Resto-Cafe,Guwahati,Beltola,26.133123219699996,91.7932086065,781028.0,"Chinese, Cafe, Italian, North Indian",700,3.8
18382720,MUGHALS – Taste Meets Tradition,Guwahati,Dispur,26.135065869699996,91.7925132438,781006.0,"Biryani, North Indian",500,3.9
18633388,Kalita Cafe,Guwahati,Six Mile,26.1362776769,91.802456528,,"Rolls, Bakery, European",1200,4.3
2100676,Chung Fa,Guwahati,Zoo Tiniali,26.172766862600003,91.7831382528,,Chinese,800,4.2
18674173,Recipes Train Restaurant,Guwahati,Bhangagarh,26.1616575,91.7709882813,,North Indian,700,3.9
18765148,Old Skool - Billiards and Bistro,Guwahati,Uzan Bazaar,26.1853200203,91.7548989505,,"Continental, North Indian, Chinese",800,4.1
2100074,Shanghai Salsa,Guwahati,Zoo Tiniali,26.172305582600004,91.7848572135,,"Continental, Fast Food, Chinese, Mexican",1200,4.2
18710093,Fat Belly,Guwahati,Chandmari,26.1802827923,91.7753554881,,"Chinese, Thai, Momos",500,4.4
2100875,Culina The Kitchen,Guwahati,Ulubari,26.1715984635,91.7609640956,781007.0,"Biryani, Chinese, Mongolian",1200,4.4
2100565,Confucius,Guwahati,Christian Basti,26.1570838217,91.7771495506,,"Chinese, Thai",750,4.2
2100127,Pizza Hut,Guwahati,"Dona Planet Mall, Christian Basti",26.161270425300003,91.7722789943,,"Pizza, Fast Food, Italian",700,4.0
18421803,Taii Singpho,Guwahati,Silpukhuri,26.1843888325,91.767093949,,North Eastern,500,4.4
2100416,Cafe Hendrix,Guwahati,Six Mile,26.1376733765,91.7996264622,,"Continental, Chinese, North Indian",1200,4.0
2100381,Red Hot Chilli Pepper,Guwahati,Ganeshguri,26.1520203946,91.7843033373,,"Chinese, Thai",1500,4.2
2100322,4 Seasons,Guwahati,Uzan Bazaar,26.191385947399997,91.7533992603,,"Chinese, North Indian, Momos",500,4.0
2101933,Fat Belly,Guwahati,Uzan Bazaar,26.1913594725,91.7533647269,,"Asian, Chinese, Tibetan, Momos",500,4.4
18224282,Three Guys,Guwahati,Zoo Tiniali,26.1674862553,91.7790099978,781024.0,"Continental, North Indian, Chinese, Arabian, Thai, Momos",1000,4.0
18683081,Dilli 6,Guwahati,Hatigaon,26.1242550665,91.7868232727,781038.0,"North Indian, Biryani, Chinese, Mughlai",600,3.8
2100145,The Yellow Chilli,Guwahati,"The Hub, Bhangagarh",26.167021945300004,91.7669031769,781005.0,"Chinese, Continental, North Indian",1200,3.8
18643549,Oriental Bistro,Guwahati,Ulubari,26.1721283518,91.759429872,,"Thai, Japanese, Chinese, Momos",1100,4.2
2100714,O Maa Go,Guwahati,Ulubari,26.172437678,91.7596612126,,Bengali,800,3.6
2100868,Seven - Vivanta By Taj - Guwahati,Guwahati,"Vivanta By Taj, Khanapara",26.1252047957,91.8172301352,,Continental,2000,4.2
19029599,Caviar International Dine & Cafe,Guwahati,Zoo Tiniali,26.178378,91.775833,,"Continental, Italian, Chinese",700,4.0
2100860,Sura Vie,Guwahati,"The Hub, Bhangagarh",26.1669686834,91.7670067772,781005.0,"Chinese, Continental, American, Mexican, Italian, Israeli",1500,3.9
2100574,China Town,Guwahati,Bhangagarh,26.1755472222,91.7728055555,,Chinese,600,4.1
2100303,Gam's Delicacy Restaurant,Guwahati,Ganeshguri,26.148693009,91.7867290601,781006.0,Assamese,800,4.3
18449612,Urban JuncXion,Guwahati,Chandmari,26.1803294564,91.7740122662,781003.0,"Chinese, North Indian, Momos",500,4.0
2100855,Nehars - The Mughlai Darbar,Guwahati,Bhangagarh,26.1595412727,91.7753414065,,"Mughlai, North Indian",500,4.0
2100776,Ziya,Guwahati,Silpukhuri,26.1853467975,91.7572140321,781003.0,"Continental, Chinese",700,4.5
2100859,Ballygunge Cuisine,Guwahati,Ulubari,26.1726377766,91.7598660663,781007.0,Bengali,1000,4.2
2100759,Nagameez,Guwahati,Silpukhuri,26.1845816898,91.7665870115,,"Chinese, Naga, Biryani, Tibetan, Momos",600,4.2
2100124,Brown Bean Cafe & Restaurant,Guwahati,Uzan Bazaar,26.191458753499997,91.7542374507,,"North Indian, Continental, Chinese, Cafe",700,3.9
2100778,Khushboo,Guwahati,Fancy Bazaar,26.1797490295,91.7387839034,,"Beverages, Chinese, South Indian, Ice Cream",450,4.2
2100667,Beatrix,Guwahati,Uzan Bazaar,26.186089,91.758,,"Chinese, North Indian, Fast Food",750,4.0
2100641,Chinese Hut,Guwahati,Ulubari,26.1792913877,91.7565407977,,"Chinese, North Indian, Momos",450,3.8
2100792,Kasturi Restaurant,Guwahati,Ulubari,26.1715190252,91.7608460784,,"Bengali, Bangladeshi",500,4.0
2101295,Ichchapuron,Guwahati,Ganeshguri,26.1483896392,91.7860789597,781006.0,Bengali,1000,3.7
18802742,Center Point,Guwahati,Amingaon,26.208944971100003,91.6859904472,,"Biryani, North Indian",400,4.0
2100758,Heritage Khorikaa,Guwahati,Silpukhuri,26.1851091122,91.7662976682,,Assamese,600,4.1
2100541,Spice Route,Guwahati,Dispur,26.1423852824,91.7949869111,,"Chinese, North Indian, Fast Food",900,4.0
2100695,16 Anna Bengali Restaurant,Guwahati,Ulubari,26.1714028766,91.7614774033,,Bengali,400,3.6
2100318,Hot Pot Restaurant,Guwahati,Uzan Bazaar,26.191479211399997,91.7536088079,,"Asian, Chinese, North Indian",600,3.8
18745140,Snap Dine,Guwahati,Zoo Tiniali,26.1791179785,91.7754119895,781003.0,"North Indian, Chinese, Momos",500,4.0
2100111,Paradise,Guwahati,"Paradise Hotel, Silpukhuri",26.1846111111,91.7671361111,,Assamese,650,3.9
2100525,Florentine - Hotel Gateway Grandeur,Guwahati,"Hotel Gateway Grandeur, Christian Basti",26.1583838757,91.7754708231,781005.0,"North Indian, Chinese, Continental",1000,4.0
2101411,Roots,Guwahati,Khanapara,26.1363,91.802423,,"Continental, North Indian, Asian, Mughlai",1200,3.8
18708335,Chang Mai,Guwahati,Uzan Bazaar,26.1914193419,91.7542421445,,Asian,1000,4.0
2100378,Gopal Maharaj,Guwahati,Fancy Bazaar,26.1807771375,91.7368667945,,North Indian,800,3.9
2100435,Silk Route,Guwahati,Uzan Bazaar,26.1876861111,91.7551583333,781001.0,"Chinese, Thai, Momos",450,4.1
2100369,Taj Biryani,Guwahati,Ulubari,26.171949014499997,91.7607636005,,North Indian,300,3.6
2100800,Dine Way Platz,Guwahati,Khanapara,26.1242743321,91.8167607486,,"Continental, Chinese, Mongolian, North Indian",1200,3.8
2101830,Dunkin Oza,Guwahati,Six Mile,26.137166206999996,91.8005461246,781022.0,"Finger Food, North Indian",1200,3.8
2100336,Red,Guwahati,Zoo Tiniali,26.156970668200003,91.7827801779,,"North Indian, Continental, Chinese",1000,3.9
2100701,Urban Mantra Restro Lounge,Guwahati,Khanapara,26.1273724371,91.8128249422,,"Chinese, North Indian",1000,3.9
2100847,Kiranshree Sweets,Guwahati,Bharalumukh,26.1715239925,91.7374785701,,"South Indian, North Indian, Chinese, Mithai",500,4.0
2100803,Kiranshree Sweets,Guwahati,Christian Basti,26.1547138944,91.7800322548,781005.0,"South Indian, North Indian, Chinese, Mithai",500,4.1
2100635,Recipes,Guwahati,Dispur,26.1395825415,91.7981676757,,"Chinese, North Indian, Mughlai",1100,3.9
2100819,Zeppelin's,Guwahati,Hatigaon,26.1208266454,91.7871156335,,"Chinese, North Indian, Fast Food",400,3.6
2101423,Uruka,Guwahati,Silpukhuri,26.1850519473,91.7614140362,781003.0,"Assamese, Healthy Food",1000,3.9
2100908,Moti Mahal Delux,Guwahati,Zoo Tiniali,26.1629884181,91.7805579677,,"North Indian, Mughlai",1200,3.8
18762237,The Grill Avenue,Guwahati,Bhangagarh,26.1708132,91.770503,781007.0,"North Indian, Continental, Asian",900,4.0
18870978,Santa Fantasea,Guwahati,Zoo Tiniali,26.1711970151,91.7776994212,,Seafood,1000,4.0
2100113,Sagar Ratna,Guwahati,Paltan Bazaar,26.1787368594,91.7507214099,,"South Indian, North Indian, Chinese",500,4.1
2100050,Gams Delicacy,Guwahati,Beltola,26.113893,91.725835,,Assamese,600,3.9
2100530,Mosaic Bar and Restaurant,Guwahati,Dispur,26.1450299462,91.7912267894,,"North Indian, Continental, Assamese",950,3.8
18732028,Xtreme Sports Bar and Grill,Guwahati,Christian Basti,26.161819,91.77102,,"North Indian, Continental, Chinese, Japanese",1200,4.3
2100972,Mast Punjabi Dhaba,Guwahati,Ulubari,26.1724485104,91.7596387491,,"North Indian, Chinese",600,3.6
2101031,Legacy,Guwahati,Khanapara,26.125454,91.821322,,"Thai, Chinese, North Indian, South Indian, Continental",1000,3.8
2101333,Retro Town,Guwahati,Khanapara,26.1274452831,91.8121691421,,"North Indian, Chinese",2000,3.5
18654458,16 Hillside,Guwahati,Zoo Tiniali,26.1736605311,91.7859753594,781021.0,"Indian, Chinese, Momos",700,3.8
2100894,Greenwood Restaurant,Guwahati,Khanapara,26.119165,91.832769,,"North Indian, Chinese, Italian, Assamese, Continental",800,3.9
2100816,Cuba Dining,Guwahati,Maligaon,26.159206333,91.6981400549,,"North Indian, Chinese",800,3.5
2100533,Slice of Heaven,Guwahati,Zoo Tiniali,26.168116967800003,91.7789023742,,"North Indian, Chinese",800,3.5
18919676,El-Firangi,Guwahati,Uzan Bazaar,26.185428,91.754031,,"North Indian, Chinese",600,3.7
2100404,The Dispur Dhaba,Guwahati,Ganeshguri,26.1505399966,91.7846047506,,"North Indian, Mughlai",600,3.4
2100427,Sunflower Restaurant,Guwahati,Pan Bazaar,26.1868899349,91.7441593856,,"North Indian, Chinese, Street Food",450,3.1
2100385,Saatvik,Guwahati,Fancy Bazaar,26.1805027103,91.7360942777,781001.0,"North Indian, South Indian, Chinese",1000,3.7
18508943,Anuradha's Box Office Feast,Guwahati,Chandmari,26.1837735525,91.78267691290002,,"South Indian, North Indian, Chinese, Continental, Momos",700,3.7
2100102,Bhut Jolokia,Guwahati,Zoo Tiniali,26.1720236382,91.7777369544,,Assamese,1000,3.7
2100748,Pizza Hut,Guwahati,Ganeshguri,26.154297,91.780599,,"Pizza, Fast Food, Italian",700,3.7
2100866,Umami - Vivanta By Taj - Guwahati,Guwahati,"Vivanta By Taj, Khanapara",26.1247270723,91.8151064962,,"Chinese, Japanese",2500,4.0
18902354,Chawla's,Guwahati,Christian Basti,26.1538182,91.7801825,,"North Indian, Chinese",800,3.8
2100767,Shahi Darbar,Guwahati,Fancy Bazaar,26.1822574525,91.737995334,,"North Indian, Chinese",800,4.0
2100298,Hotel Nandan Trans Curry,Guwahati,"Hotel Nandan, Paltan Bazaar",26.1782644702,91.7523340881,,"North Indian, Continental, Chinese, Assamese",850,3.9
2100936,New Citi Dhaba,Guwahati,Bhangagarh,26.1660078591,91.7672756687,,"North Indian, Biryani, Chinese",700,3.8
2100546,Greenwood Resort - City Point,Guwahati,Christian Basti,26.1619414957,91.7716349289,,"North Indian, Chinese",1000,3.9
2101831,Borluit,Guwahati,Amingaon,26.2179772864,91.697662957,,North Eastern,700,3.5
2100553,Kitchen Bar & Restaurant,Guwahati,Ganeshguri,26.1230747425,91.7990554869,,"North Indian, Chinese",1200,3.6
2100371,Loyans,Guwahati,Uzan Bazaar,26.1906512656,91.7542025819,,"Bakery, Fast Food",200,4.4
2101262,Frozen Punch,Guwahati,Ulubari,26.1807377223,91.7563101277,,Desserts,200,4.3
2101210,Frozen Stone,Guwahati,Paltan Bazaar,26.1746733471,91.7495828122,781008.0,"Desserts, Ice Cream, Bakery",200,4.0
18628137,Keventers,Guwahati,Uzan Bazaar,26.1915679625,91.7522650212,,"Beverages, Desserts, Ice Cream",400,4.1
18978934,Sweet Cult,Guwahati,Silpukhuri,26.1846162897,91.7675676942,781003.0,Desserts,500,4.2
18762744,The Belgian Waffle Co.,Guwahati,Zoo Tiniali,26.1754847571,91.7766261242,,"Bakery, Desserts, Beverages",300,4.4
2100409,Loyans,Guwahati,Beltola,26.1343588259,91.7929732427,,"Bakery, Fast Food",200,4.0
2100345,Baskin Robbins,Guwahati,Uzan Bazaar,26.191546602,91.7523156479,,"Ice Cream, Desserts, Beverages",300,4.3
2100387,Shaikh Brothers,Guwahati,Pan Bazaar,26.1865950886,91.7435146496,,Bakery,150,3.8
2100091,Baskin Robbins,Guwahati,Zoo Tiniali,26.1719246415,91.7777527124,,"Ice Cream, Desserts, Beverages",300,4.0
2100364,Thanco's Natural Icecream,Guwahati,Fancy Bazaar,26.1797270652,91.7354190722,,Ice Cream,150,3.8
2100425,Priyanka,Guwahati,Beltola,26.1345460469,91.7926245555,,"Fast Food, Bakery, Desserts, Momos",150,3.9
2100442,Baskin Robbins,Guwahati,Beltola,26.1340933447,91.79290317,,"Ice Cream, Desserts, Beverages",300,3.6
18856072,Keventers,Guwahati,Dispur,26.133043,91.793015,781028.0,"Beverages, Desserts, Ice Cream",400,3.8
2100185,Cake.com,Guwahati,Fancy Bazaar,26.181206491,91.7400086671,,Desserts,600,3.5
2100458,Lakhimi Cabin,Guwahati,Fancy Bazaar,26.183030398200003,91.7406165227,,"Bakery, Desserts",150,3.7
18762663,The Belgian Waffle Co.,Guwahati,Christian Basti,26.157022129,91.7776930332,,"Bakery, Desserts, Beverages",300,3.6
18761237,Pabrai's Fresh & Naturelle Ice Creams,Guwahati,Uzan Bazaar,26.1867916864,91.7522815255,781001.0,"Desserts, Ice Cream",200,3.9
2101258,Baskin Robbins,Guwahati,Amingaon,26.1963387614,91.6873230413,,"Ice Cream, Desserts, Beverages",300,3.7
18787422,Keventers,Guwahati,Christian Basti,26.1574506671,91.7786076665,,"Beverages, Desserts, Ice Cream",400,3.7
2100515,Baskin Robbins,Guwahati,Christian Basti,26.1614638889,91.7724694444,,"Ice Cream, Desserts, Beverages",300,3.8
18783489,Baskin Robbins,Guwahati,Hatigaon,26.1358526728,91.7856055499,781038.0,"Ice Cream, Desserts, Beverages",300,3.6
2100751,Baskin Robbins,Guwahati,Paltan Bazaar,26.18015,91.750023,,"Ice Cream, Desserts, Beverages",300,3.7
18709705,The Big Freeze,Guwahati,Christian Basti,26.157462102800004,91.7781285569,,Ice Cream,300,3.5
2101657,Farzipaan,Guwahati,Christian Basti,26.1574753441,91.7781027406,,"Beverages, Desserts",150,3.5
18775835,Bombay Kulfi,Guwahati,Ulubari,26.175623989,91.7568282513,,Ice Cream,100,3.5
18769669,Ice Land,Guwahati,Pan Bazaar,26.1864061398,91.7429968204,781001.0,"Ice Cream, Desserts",200,3.5
18889829,Scoops N Smile,Guwahati,Ganeshguri,26.151036,91.7849,,"Ice Cream, Beverages",150,3.1
18799245,Ice Land,Guwahati,Christian Basti,26.157221485100003,91.777843648,781006.0,"Ice Cream, Desserts",200,3.4
2100730,S@rma's Mithai,Guwahati,Beltola,26.1128866152,91.7980241776,,Desserts,100,3.4
2100051,New Padma Bakery,Guwahati,Maligaon,26.1583333333,91.6853333333,,"Desserts, Bakery, Mithai",100,2.9
18897529,Baskin Robbins,Guwahati,Ganeshguri,26.1467209,91.7871256,,"Ice Cream, Desserts, Beverages",300,0.0
19054283,Amor Chocolates,Guwahati,Six Mile,26.135722944,91.8214854598,,Desserts,250,3.4
2100226,Bharatiya Mistan Bhandar,Guwahati,Chandmari,26.1836381604,91.7739003897,,Mishti,100,2.7
2100190,Poornima Sweets,Guwahati,Zoo Tiniali,26.175559177800004,91.7765118554,,Desserts,150,3.3
19108908,Green Leaves,Guwahati,Fancy Bazaar,26.1807974689,91.7363721119,,Desserts,200,0.0
2100267,Krishna Sweets & Bakery,Guwahati,Hatigaon,26.1203594404,91.787439175,,"Bakery, Desserts",100,3.3
2100347,Shubham Sweets,Guwahati,Beltola,26.1262634863,91.7971343547,,Desserts,100,3.4
18919809,Baskin Robbins,Guwahati,Bharalumukh,26.168688,91.736435,,"Ice Cream, Desserts, Beverages",300,3.3
2100184,Sai Sweets,Guwahati,Chandmari,26.1833881358,91.7820650339,,Desserts,100,3.2
18921697,Toostee's Cakes And Bakes,Guwahati,Uzan Bazaar,26.1904766802,91.7539003386,781001.0,Desserts,300,0.0
2100230,Indian Sweets,Guwahati,Hatigaon,26.1288690826,91.7864105478,,Desserts,100,3.0
19039522,Baskin Robbins,Guwahati,"Central Mall, Christian Basti",26.157168,91.777826,,"Ice Cream, Desserts, Beverages",300,0.0
19094685,Baskin Robbins,Guwahati,Zoo Tiniali,26.1720927327,91.7778047586,,"Ice Cream, Desserts, Beverages",300,0.0
2100238,Yadav Mistanna Bhandar,Guwahati,Chandmari,26.183618302800003,91.7732885107,,Mishti,100,3.1
2100244,Baruah Sweets and Snacks,Guwahati,Khanapara,26.1309406346,91.8085806817,,Desserts,100,3.1
18779185,Bombay Kulfi,Guwahati,Bharalumukh,26.1712447543,91.7344798605,,"Ice Cream, Desserts",200,0.0
2100261,Rupam Jalpan,Guwahati,Hatigaon,26.1201953763,91.7871602252,,Desserts,100,3.2
18928800,Jain Sweets & Restaurant,Guwahati,Bharalumukh,26.1679806548,91.7385515571,,Mithai,300,0.0
2100390,Sahujee Sweets,Guwahati,Six Mile,26.137567126999997,91.8001746386,,Mithai,100,3.0
2100041,Ananda Mistan Bhandar,Guwahati,Maligaon,26.1583333333,91.6821666667,,"Desserts, Mithai",100,3.1
2100223,Kiran Mistanna Bhandar,Guwahati,Chandmari,26.1836074715,91.7738521099,,Mishti,100,3.1
2100712,Mocha,Guwahati,"Anil Plaza, Christian Basti",26.1612885852,91.7740610278,781005.0,"Cafe, Italian",800,4.9
18397909,BrewBakes,Guwahati,Six Mile,26.1330681363,91.8064728007,781022.0,"Cafe, Continental, Chinese",500,4.7
2100719,The Corner Cafe,Guwahati,Uzan Bazaar,26.1860216406,91.7567718029,,"Cafe, Continental, North Indian, Italian, Chinese, Biryani",900,4.1
2101445,The Steaming Mug,Guwahati,Uzan Bazaar,26.185663309299997,91.752842702,781001.0,Cafe,800,4.3
2100784,11th Avenue Cafe Bistro,Guwahati,Uzan Bazaar,26.1858534567,91.7522613332,781001.0,"Cafe, American, Italian, Continental",350,4.2
19055804,The Table Talk Cafe,Guwahati,Uzan Bazaar,26.18592,91.75209,781001.0,Cafe,800,4.0
2101537,Café Wings,Guwahati,Six Mile,26.128911,91.805764,,"Cafe, Sandwich, Fast Food, North Indian",700,3.9
18381932,The Zouq : Resto-Cafe,Guwahati,Beltola,26.133123219699996,91.7932086065,781028.0,"Chinese, Cafe, Italian, North Indian",700,3.8
